date,county,latitude,longitude,fire_name,acres_burned,fire_bins,duration,started,extinguished,pct_contained,major_incident,admin_unit,avg_wind_speed,avg_monthly_temp,total_monthly_precipitation,highest_daily_precipitation,total_monthly_snowfall,dsnd,dt00,dx32,co2_measured_mole_fraction,value_std_dev,co2_number_of_measurements,qc_flag,temp_range,month,season
2017-12-01,santa barbara,34.71796,-120.27077,Drum Fire,14.0,1,24.0,2017-12-16 12:21:00+00:00,2018-01-09 13:49:00+00:00,100.0,False,Santa Barbara County Fire,222.5470588235294,63.357692307692304,265.0769230769231,0.0,0.007272727272727274,0.16062632891254802,0.0,0.0,407.7,0.06,7,pass,13.053846153846166,12,winter
2017-12-01,santa barbara,34.605358,-120.414875,Coast Fire,14.0,1,26.0,2017-12-14 12:59:00+00:00,2018-01-09 13:49:00+00:00,100.0,False,Santa Barbara County Fire,222.5470588235294,63.357692307692304,265.0769230769231,0.0,0.007272727272727274,0.16062632891254802,0.0,0.0,406.14,0.16,10,pass,13.053846153846166,12,winter
2017-12-01,ventura,34.415209999999995,-119.09123999999998,Thomas Fire,281893.0,6,464.0,2017-12-04 18:28:00+00:00,2019-03-14 11:24:00+00:00,100.0,True,US Forest Service - Los Padres National Forest ,446.0055555555557,63.62916666666666,281.6666666666667,0.0,0.0009090909090909092,0.16062632891254802,0.0,0.0,407.21,0.24,14,pass,13.908333333333339,12,winter
2017-12-01,riverside,33.965140000000005,-117.4764,Riverdale Fire,40.0,1,36.0,2017-12-04 12:26:00+00:00,2018-01-09 13:47:00+00:00,100.0,False,CAL FIRE/Riverside County Fire and Riverside City Fire Department ,534.6619047619048,63.65,252.45454545454547,0.0,0.0006666666666666666,0.0,0.0,0.0,407.21,0.24,14,pass,13.145454545454541,12,winter
2017-12-01,riverside,33.59257,-117.14979,Liberty Fire,300.0,4,33.0,2017-12-07 13:14:00+00:00,2018-01-09 13:47:00+00:00,100.0,False,Murrieta Fire,534.6619047619048,63.65,252.45454545454547,0.0,0.0006666666666666666,0.0,0.0,0.0,406.61,0.25,15,pass,13.145454545454541,12,winter
2017-12-01,riverside,33.9885,-117.38417,Riverbottom Fire,45.0,1,19.0,2017-12-21 11:16:00+00:00,2018-01-09 13:49:00+00:00,100.0,False,City of Riverside Fire Department,534.6619047619048,63.65,252.45454545454547,0.0,0.0006666666666666666,0.0,0.0,0.0,406.76,0.26,15,pass,13.145454545454541,12,winter
2017-12-01,riverside,33.88994,-116.91023,Longhorn Fire,19.0,1,26.0,2017-12-13 15:27:00+00:00,2018-01-09 13:49:00+00:00,100.0,False,CAL FIRE/Riverside County Fire Department,534.6619047619048,63.65,252.45454545454547,0.0,0.0006666666666666666,0.0,0.0,0.0,405.92,0.16,10,pass,13.145454545454541,12,winter
2017-07-01,lassen,40.07045,-120.14013,Long Valley Fire,83733.0,6,181.0,2017-07-11 14:15:00+00:00,2018-01-09 11:52:00+00:00,100.0,False,Bureau of Land Management,1550.46875,79.59583333333333,7.25,0.0,0.334,0.0,0.0,0.0,407.23,0.19,9,pass,17.57499999999999,07,summer
2017-07-01,lassen,40.6361,-120.9643,Antelope Fire,0.0,1,186.0,2017-07-06 13:00:00+00:00,2018-01-09 11:45:00+00:00,100.0,False,Lassen National Forest,1550.46875,79.59583333333333,7.25,0.0,0.334,0.0,0.0,0.0,407.74,0.43,13,pass,17.57499999999999,07,summer
2017-07-01,san diego,32.84796,-116.85396,Jennings Fire,400.0,4,181.0,2017-07-11 13:45:00+00:00,2018-01-09 11:52:00+00:00,100.0,True,"Unified Command: CAL FIRE San Diego Unit, Alpine Fire Protection District and  Lakeside Fire Protection District",373.0723809523809,81.75394736842105,0.02631578947368421,0.0,0.07582417582417582,0.0,0.0,0.0,407.23,0.19,9,pass,11.276315789473685,07,summer
2017-07-01,san diego,33.34659,-116.66107,Lost Fire,255.0,4,263.0,2017-07-22 15:00:00+00:00,2018-04-12 14:52:00+00:00,100.0,False,Unified Command: CAL FIRE San Diego County Fire Authority and Cleveland National Forest - USFS,373.0723809523809,81.75394736842105,0.02631578947368421,0.0,0.07582417582417582,0.0,0.0,0.0,406.43,0.09,14,pass,11.276315789473685,07,summer
2017-07-01,santa clara,37.39801,-121.8179,Lariat Fire,101.0,3,181.0,2017-07-11 16:51:00+00:00,2018-01-09 11:53:00+00:00,100.0,False,San Jose Fire Department,224.30454545454543,78.29374999999999,3.25,0.0,0.0,0.0,0.0,0.0,407.23,0.19,9,pass,11.362499999999997,07,summer
2017-07-01,santa clara,37.44485,-121.84108,Weller Fire,51.0,2,166.0,2017-07-26 23:19:00+00:00,2018-01-09 12:07:00+00:00,100.0,False,CAL FIRE Santa Clara Unit,224.30454545454543,78.29374999999999,3.25,0.0,0.0,0.0,0.0,0.0,406.66,0.12,15,pass,11.362499999999997,07,summer
2017-07-01,santa clara,37.25014,-121.68562,Felipe Fire,70.0,2,182.0,2017-07-10 15:54:00+00:00,2018-01-09 11:52:00+00:00,100.0,False,CAL FIRE Santa Clara Unit,224.30454545454543,78.29374999999999,3.25,0.0,0.0,0.0,0.0,0.0,407.26,0.16,6,pass,11.362499999999997,07,summer
2017-07-01,santa clara,36.96607,-121.55552,Castro Fire,78.0,2,169.0,2017-07-23 16:07:00+00:00,2018-01-09 12:04:00+00:00,100.0,False,CAL FIRE Santa Clara Unit,224.30454545454543,78.29374999999999,3.25,0.0,0.0,0.0,0.0,0.0,407.27,0.3,12,pass,11.362499999999997,07,summer
2017-07-01,mariposa,37.61757,-120.21321,Detwiler Fire,81826.0,6,176.0,2017-07-16 15:56:00+00:00,2018-01-09 11:57:00+00:00,100.0,True,CAL FIRE Madera-Mariposa-Merced Unit,1100.5214285714285,80.84375000000001,8.75,0.0,0.0,0.16062632891254802,0.0,0.0,406.48,0.05,8,pass,13.012500000000017,07,summer
2017-07-01,mariposa,37.4591,-119.921,Spring Fire,225.0,3,190.0,2017-07-02 13:36:00+00:00,2018-01-09 11:17:00+00:00,100.0,True,CAL FIRE Madera-Mariposa-Merced Unit,1100.5214285714285,80.84375000000001,8.75,0.0,0.0,0.16062632891254802,0.0,0.0,406.82,0.04,4,pass,13.012500000000017,07,summer
2017-07-01,mendocino,39.30125,-123.28825,Grade Fire,900.0,5,176.0,2017-07-16 14:51:00+00:00,2018-01-09 11:56:00+00:00,100.0,True,CAL FIRE Mendocino Unit,357.6222222222222,81.28888888888889,30.0,0.0,0.005,0.0,0.0,0.0,406.48,0.05,8,pass,17.533333333333317,07,summer
2017-07-01,mendocino,39.13207,-123.10227,Range Fire,20.0,1,175.0,2017-07-17 12:37:00+00:00,2018-01-09 11:58:00+00:00,100.0,True,CAL FIRE Mendocino Unit,357.6222222222222,81.28888888888889,30.0,0.0,0.005,0.0,0.0,0.0,407.52,0.14,12,pass,17.533333333333317,07,summer
2017-07-01,monterey,36.66684,-121.74826000000002,Reservation Fire,40.0,1,177.0,2017-07-16 11:17:00+00:00,2018-01-09 11:56:00+00:00,100.0,False,Monterey County Regional Fire District,174.525,77.22083333333333,47.08333333333334,0.0,0.002142857142857143,0.0,0.0,0.0,406.48,0.05,8,pass,15.474999999999994,07,summer
2017-08-01,siskiyou,41.841,-123.474,Eclipse Complex,78698.0,6,147.0,2017-08-15 07:55:00+00:00,2018-01-09 12:43:00+00:00,100.0,False,Klamath National Forest,1032.0266666666666,82.87173913043478,0.43478260869565216,0.0,0.2928571428571428,0.0,0.0,0.0,405.19,0.1,11,pass,16.769565217391317,08,summer
2017-08-01,siskiyou,42.039,-123.218,Miller Complex,39715.0,6,147.0,2017-08-14 14:00:00+00:00,2018-01-09 12:42:00+00:00,100.0,False,Rogue River-Siskiyou National Forest,1032.0266666666666,82.87173913043478,0.43478260869565216,0.0,0.2928571428571428,0.0,0.0,0.0,405.66,0.07,8,pass,16.769565217391317,08,summer
2017-08-01,siskiyou,41.99483,-121.90077,Owens Fire,55.0,2,132.0,2017-08-29 15:39:00+00:00,2018-01-09 12:47:00+00:00,100.0,False,CAL FIRE Siskiyou Unit,1032.0266666666666,82.87173913043478,0.43478260869565216,0.0,0.2928571428571428,0.0,0.0,0.0,404.03,0.1,14,pass,16.769565217391317,08,summer
2017-08-01,siskiyou,41.853,-123.676,Young Fire,3142.0,6,154.0,2017-08-07 17:45:00+00:00,2018-01-09 12:26:00+00:00,100.0,False,Six Rivers National Forest,1032.0266666666666,82.87173913043478,0.43478260869565216,0.0,0.2928571428571428,0.0,0.0,0.0,405.4,0.44,6,pass,16.769565217391317,08,summer
2017-08-01,siskiyou,41.99279,-122.9401,Ward Fire,41.0,1,148.0,2017-08-13 12:41:00+00:00,2018-01-09 12:38:00+00:00,100.0,False,Rogue-River-Siskiyou National Forest,1032.0266666666666,82.87173913043478,0.43478260869565216,0.0,0.2928571428571428,0.0,0.0,0.0,405.49,0.1,7,pass,16.769565217391317,08,summer
2017-08-01,siskiyou,41.222,-122.292,Bradley Fire,54.0,2,133.0,2017-08-28 22:00:00+00:00,2018-01-09 12:46:00+00:00,100.0,False,Shasta-Trinity National Forest ,1032.0266666666666,82.87173913043478,0.43478260869565216,0.0,0.2928571428571428,0.0,0.0,0.0,404.05,0.15,4,pass,16.769565217391317,08,summer
2017-08-01,siskiyou,41.222,-122.27499,Bradley Fire,54.0,2,133.0,2017-08-28 21:38:00+00:00,2018-01-09 12:46:00+00:00,100.0,False,Shasta-Trinity National Forest,1032.0266666666666,82.87173913043478,0.43478260869565216,0.0,0.2928571428571428,0.0,0.0,0.0,404.05,0.15,4,pass,16.769565217391317,08,summer
2017-10-01,napa,38.39206,-122.24367,Atlas Fire (Southern LNU Complex),51624.0,6,123.0,2017-10-08 21:52:00+00:00,2018-02-09 09:37:00+00:00,100.0,True,CAL FIRE Sonoma-Lake-Napa Unit,143.11666666666667,71.4,102.0,0.0,0.205,0.0,0.0,0.0,403.48,0.32,6,pass,16.14999999999999,10,fall
2017-10-01,napa,38.60895,-122.62879,Tubbs Fire (Central LNU Complex),36807.0,6,123.0,2017-10-08 21:45:00+00:00,2018-02-09 09:27:00+00:00,100.0,True,CAL FIRE Sonoma-Lake-Napa Unit,143.11666666666667,71.4,102.0,0.0,0.205,0.0,0.0,0.0,403.48,0.32,6,pass,16.14999999999999,10,fall
2017-10-01,napa,38.31802,-122.39052,Partrick Fire (Central LNU Complex),0.0,1,92.0,2017-10-08 23:48:00+00:00,2018-01-09 13:33:00+00:00,100.0,True,CAL FIRE Sonoma-Lake-Napa Unit,143.11666666666667,71.4,102.0,0.0,0.205,0.0,0.0,0.0,403.48,0.32,6,pass,16.14999999999999,10,fall
2017-10-01,sonoma,38.4041,-122.5209,Nuns / Adobe / Norrbom/ Pressley / Partrick Fires / Oakmont (Central LNU Complex),56556.0,6,123.0,2017-10-08 22:00:00+00:00,2018-02-09 09:30:00+00:00,100.0,True,CAL FIRE Sonoma-Lake-Napa Unit,128.25161290322583,69.90714285714287,121.28571428571428,0.0,0.3785185185185185,0.0,0.0,0.0,403.48,0.32,6,pass,14.271428571428586,10,fall
2017-10-01,sonoma,38.60895,-122.62879,Tubbs Fire (Central LNU Complex),36807.0,6,123.0,2017-10-08 21:45:00+00:00,2018-02-09 09:27:00+00:00,100.0,True,CAL FIRE Sonoma-Lake-Napa Unit,128.25161290322583,69.90714285714287,121.28571428571428,0.0,0.3785185185185185,0.0,0.0,0.0,403.48,0.32,6,pass,14.271428571428586,10,fall
2017-10-01,sonoma,38.76549,-122.90939,Pocket Fire (Central LNU Complex),17357.0,6,123.0,2017-10-09 03:30:00+00:00,2018-02-09 09:32:00+00:00,100.0,True,CAL FIRE Sonoma-Lake-Napa Unit,128.25161290322583,69.90714285714287,121.28571428571428,0.0,0.3785185185185185,0.0,0.0,0.0,403.21,0.04,12,pass,14.271428571428586,10,fall
2017-10-01,sonoma,0.0,0.0,Adobe Fire (Central LNU Complex),1868.0,6,92.0,2017-10-09 01:00:00+00:00,2018-01-09 13:33:00+00:00,100.0,True,CAL FIRE Sonoma-Lake-Napa Unit,128.25161290322583,69.90714285714287,121.28571428571428,0.0,0.3785185185185185,0.0,0.0,0.0,403.21,0.04,12,pass,14.271428571428586,10,fall
2017-10-01,sonoma,38.14242,-122.47301000000002,37 Fire,1660.0,6,91.0,2017-10-09 14:00:00+00:00,2018-01-09 13:34:00+00:00,100.0,False,CAL FIRE Sonoma-Lake-Napa Unit,128.25161290322583,69.90714285714287,121.28571428571428,0.0,0.3785185185185185,0.0,0.0,0.0,403.21,0.04,12,pass,14.271428571428586,10,fall
2017-10-01,sonoma,38.36685,-122.64001,Pressley Fire (Central LNU Complex),0.0,1,92.0,2017-10-09 01:30:00+00:00,2018-01-09 13:34:00+00:00,100.0,True,CAL FIRE Sonoma-Lake-Napa Unit,128.25161290322583,69.90714285714287,121.28571428571428,0.0,0.3785185185185185,0.0,0.0,0.0,403.21,0.04,12,pass,14.271428571428586,10,fall
2017-10-01,sonoma,38.46123,-122.58152,Oakmont Fire (Central LNU Complex),100.0,2,172.0,2017-10-14 20:35:00+00:00,2018-04-05 12:01:00+00:00,100.0,True,CAL FIRE Sonoma-Lake-Napa Unit,128.25161290322583,69.90714285714287,121.28571428571428,0.0,0.3785185185185185,0.0,0.0,0.0,403.37,0.18,11,pass,14.271428571428586,10,fall
2017-10-01,sonoma,38.51937,-123.24713,Fort Fire,20.0,1,93.0,2017-10-07 20:00:00+00:00,2018-01-09 13:30:00+00:00,100.0,False,CAL FIRE Sonoma-Lake-Napa Unit,128.25161290322583,69.90714285714287,121.28571428571428,0.0,0.3785185185185185,0.0,0.0,0.0,403.17,0.11,7,pass,14.271428571428586,10,fall
2017-10-01,mendocino,39.24873,-123.16635,Redwood Valley Fire (Mendocino Lake Complex),36523.0,6,123.0,2017-10-08 23:36:00+00:00,2018-02-09 08:56:00+00:00,100.0,True,CAL FIRE Mendocinio Unit,366.9555555555555,68.4,174.55555555555554,0.0,0.9033333333333332,0.0,0.0,0.0,403.48,0.32,6,pass,15.933333333333344,10,fall
2017-10-01,yuba,39.32198,-121.4021,Cascade Fire (Wind Complex),9989.0,6,123.0,2017-10-08 23:03:00+00:00,2018-02-09 09:39:00+00:00,100.0,True,CAL FIRE Nevada-Yuba-Placer Unit,523.3000000000002,68.58333333333333,156.0,0.0,0.61,0.0,0.0,0.0,403.48,0.32,6,pass,14.633333333333304,10,fall
2017-10-01,butte,39.62496,-121.52966,Cherokee Fire,8417.0,6,123.0,2017-10-08 21:45:00+00:00,2018-02-09 09:48:00+00:00,100.0,True,CAL FIRE Butte Unit,335.9625,70.5611111111111,98.88888888888887,0.0,0.5425,0.0,0.0,0.0,403.48,0.32,6,pass,13.21111111111113,10,fall
2017-10-01,butte,39.39455,-121.40613,LaPorte Fire (Wind Complex),6151.0,6,123.0,2017-10-09 00:57:00+00:00,2018-02-09 09:50:00+00:00,100.0,True,CAL FIRE/Butte County Fire,335.9625,70.5611111111111,98.88888888888887,0.0,0.5425,0.0,0.0,0.0,403.21,0.04,12,pass,13.21111111111113,10,fall
2017-10-01,butte,39.74679,-121.67261,Honey Fire,150.0,3,91.0,2017-10-09 15:05:00+00:00,2018-01-09 13:34:00+00:00,100.0,True,CAL FIRE/Butte County Fire,335.9625,70.5611111111111,98.88888888888887,0.0,0.5425,0.0,0.0,0.0,403.21,0.04,12,pass,13.21111111111113,10,fall
2017-10-01,lake,39.01387,-122.64543,Sulphur Fire (Mendocino Lake Complex),2207.0,6,123.0,2017-10-08 23:59:00+00:00,2018-02-09 09:29:00+00:00,100.0,True,CAL FIRE Sonoma-Lake-Napa Unit,732.5916666666667,66.57857142857144,210.85714285714286,0.0,0.4560000000000001,0.0,0.0,0.0,403.48,0.32,6,pass,12.385714285714279,10,fall
2017-10-01,lake,39.0199,-122.57487,Long Fire,100.0,2,87.0,2017-10-14 05:00:00+00:00,2018-01-09 13:38:00+00:00,100.0,False,CAL FIRE Sonoma Lake Napa Unit,732.5916666666667,66.57857142857144,210.85714285714286,0.0,0.4560000000000001,0.0,0.0,0.0,403.37,0.18,11,pass,12.385714285714279,10,fall
2017-10-01,lake,39.15016,-122.576,Ridge Fire,87.0,2,94.0,2017-10-06 14:38:00+00:00,2018-01-09 13:29:00+00:00,100.0,True,CAL FIRE Sonoma-Lake-Napa Unit,732.5916666666667,66.57857142857144,210.85714285714286,0.0,0.4560000000000001,0.0,0.0,0.0,403.03,0.08,14,pass,12.385714285714279,10,fall
2017-10-01,shasta,40.70627,-122.24199,Jones Fire,40.0,1,93.0,2017-10-08 04:53:00+00:00,2018-01-09 13:31:00+00:00,100.0,False,CAL FIRE Shasta-Trintiy Unit,584.625925925926,68.10833333333333,187.41666666666663,0.0,0.611,0.0,0.0,0.0,403.48,0.32,6,pass,15.18333333333333,10,fall
2017-10-01,shasta,40.774,-122.309, Bridge Fire,37.0,1,70.0,2017-10-31 11:22:00+00:00,2018-01-09 13:46:00+00:00,100.0,False, Shasta-Trinity National Forest ,584.625925925926,68.10833333333333,187.41666666666663,0.0,0.611,0.0,0.0,0.0,404.28,0.14,4,pass,15.18333333333333,10,fall
2017-10-01,humboldt,40.88516,-123.96844,Blue Fire,20.0,1,92.0,2017-10-08 16:40:00+00:00,2018-01-09 13:30:00+00:00,100.0,True,CAL FIRE Humboldt-Del Norte Unit,241.41176470588238,63.37777777777777,245.33333333333331,0.0,1.9707142857142856,0.0,0.0,0.0,403.48,0.32,6,pass,11.822222222222209,10,fall
2017-10-01,tehama,40.24789000000001,-122.255,Freeway Fire,10.0,1,93.0,2017-10-08 12:15:00+00:00,2018-01-09 13:31:00+00:00,100.0,False,CAL FIRE Tehama-Glenn Unit,289.94666666666666,71.2,94.6,0.0,0.4963636363636363,0.16062632891254802,0.0,0.0,403.48,0.32,6,pass,12.400000000000006,10,fall
2017-10-01,tehama,40.20077,-122.24731,36 Fire,20.0,1,97.0,2017-10-03 16:22:00+00:00,2018-01-09 13:29:00+00:00,100.0,False,CAL FIRE Tehama-Glenn Unit ,289.94666666666666,71.2,94.6,0.0,0.4963636363636363,0.16062632891254802,0.0,0.0,402.72,0.14,5,pass,12.400000000000006,10,fall
2017-07-01,kings,35.93273,-120.20014,Garza Fire,48889.0,6,183.0,2017-07-09 15:10:00+00:00,2018-01-09 11:51:00+00:00,100.0,True,CAL FIRE Fresno-Kings Unit,88.91999999999999,92.91,0.0,0.0,0.0,0.0,0.0,0.0,407.42,0.12,12,pass,15.980000000000004,07,summer
2017-07-01,san luis obispo,35.42433,-120.47322,Stone Fire,340.0,4,183.0,2017-07-09 13:49:00+00:00,2018-01-09 11:51:00+00:00,100.0,True,CAL FIRE San Luis Obispo Unit,351.67647058823525,83.60499999999999,4.2,0.0,0.0,0.0,0.0,0.0,407.42,0.12,12,pass,16.510000000000005,07,summer
2017-07-01,san luis obispo,35.0179,-120.3223,Alamo Fire,28687.0,6,186.0,2017-07-06 15:44:00+00:00,2018-01-09 11:46:00+00:00,100.0,True,Unified Command: CAL FIRE San Luis Obispo Unit / Santa Barbara County / Los Padres National Forest,351.67647058823525,83.60499999999999,4.2,0.0,0.0,0.0,0.0,0.0,407.74,0.43,13,pass,16.510000000000005,07,summer
2017-07-01,san luis obispo,35.06472,-120.5634,Zenon Fire,47.0,1,172.0,2017-07-20 14:43:00+00:00,2018-01-09 12:03:00+00:00,100.0,False,CAL FIRE San Luis Obispo Unit,351.67647058823525,83.60499999999999,4.2,0.0,0.0,0.0,0.0,0.0,406.95,0.16,11,pass,16.510000000000005,07,summer
2017-08-01,mariposa,37.538,-119.598,South Fork Fire,7000.0,6,147.0,2017-08-14 14:28:00+00:00,2018-01-09 12:39:00+00:00,100.0,False,Yosemite National Park ,1146.375,79.34375000000001,23.75,0.0,0.3457142857142857,0.16062632891254802,0.0,0.0,405.66,0.07,8,pass,12.237499999999983,08,summer
2017-08-01,mariposa,37.644,-119.618,Empire Fire,8094.0,6,161.0,2017-08-01 08:45:00+00:00,2018-01-09 12:16:00+00:00,100.0,False,Yosemite National Forest,1146.375,79.34375000000001,23.75,0.0,0.3457142857142857,0.16062632891254802,0.0,0.0,406.33,0.08,8,pass,12.237499999999983,08,summer
2017-08-01,mariposa,37.62823,-120.30046000000002,Coronado Fire,125.0,3,148.0,2017-08-13 16:23:00+00:00,2018-01-09 12:40:00+00:00,100.0,False,CAL FIRE Madera-Mariposa-Merced Unit ,1146.375,79.34375000000001,23.75,0.0,0.3457142857142857,0.16062632891254802,0.0,0.0,405.49,0.1,7,pass,12.237499999999983,08,summer
2017-08-01,riverside,33.95036,-116.88066,Mias Fire,545.0,5,147.0,2017-08-14 15:45:00+00:00,2018-01-09 12:42:00+00:00,100.0,True,CAL FIRE Riverside Unit,576.7813953488372,89.99347826086955,3.0434782608695654,0.0,0.3012121212121213,0.0,0.0,0.0,405.66,0.07,8,pass,13.899999999999991,08,summer
2017-08-01,riverside,33.57139,-116.8247,Reed Fire,92.0,2,154.0,2017-08-07 14:14:00+00:00,2018-01-09 12:23:00+00:00,100.0,True,CAL FIRE/Riverside County Fire/San Bernardino National Forest ,576.7813953488372,89.99347826086955,3.0434782608695654,0.0,0.3012121212121213,0.0,0.0,0.0,405.4,0.44,6,pass,13.899999999999991,08,summer
2017-08-01,riverside,33.98212,-117.30819,Blaine Fire,1044.0,6,148.0,2017-08-13 16:10:00+00:00,2018-01-09 12:38:00+00:00,100.0,True,CAL FIRE/Riverside County Fire,576.7813953488372,89.99347826086955,3.0434782608695654,0.0,0.3012121212121213,0.0,0.0,0.0,405.49,0.1,7,pass,13.899999999999991,08,summer
2017-08-01,riverside,33.797216,-117.124538,Nuevo Fire,19.0,1,148.0,2017-08-13 13:34:00+00:00,2018-01-09 12:38:00+00:00,100.0,False,CAL FIRE/Riverside County Fire,576.7813953488372,89.99347826086955,3.0434782608695654,0.0,0.3012121212121213,0.0,0.0,0.0,405.49,0.1,7,pass,13.899999999999991,08,summer
2017-08-01,riverside,33.87679,-117.00258,Hills Fire,168.0,3,142.0,2017-08-19 16:31:00+00:00,2018-01-09 12:43:00+00:00,100.0,False,CAL FIRE Riverside Unit,576.7813953488372,89.99347826086955,3.0434782608695654,0.0,0.3012121212121213,0.0,0.0,0.0,404.65,0.09,7,pass,13.899999999999991,08,summer
2017-08-01,riverside,34.009026,-117.239099,Stewart Fire,122.0,3,157.0,2017-08-04 14:25:00+00:00,2018-01-09 12:19:00+00:00,100.0,False,CAL FIRE/Riverside County Fire,576.7813953488372,89.99347826086955,3.0434782608695654,0.0,0.3012121212121213,0.0,0.0,0.0,406.16,0.12,11,pass,13.899999999999991,08,summer
2017-08-01,riverside,117.337331,34.015742,Marlborough Fire,85.0,2,131.0,2017-08-31 10:13:00+00:00,2018-01-09 12:49:00+00:00,100.0,False,CAL FIRE/Riverside County Fire Department,576.7813953488372,89.99347826086955,3.0434782608695654,0.0,0.3012121212121213,0.0,0.0,0.0,404.17,0.24,13,pass,13.899999999999991,08,summer
2017-08-01,riverside,33.6444,-117.3968,Canyon Fire,46.0,1,134.0,2017-08-27 14:51:00+00:00,2018-01-09 12:45:00+00:00,100.0,False,CAL FIRE / USFS - Cleveland National Forest,576.7813953488372,89.99347826086955,3.0434782608695654,0.0,0.3012121212121213,0.0,0.0,0.0,404.66,0.31,12,pass,13.899999999999991,08,summer
2017-08-01,tulare,36.15356,-118.74103,Pier Fire,36556.0,6,133.0,2017-08-29 08:29:00+00:00,2018-01-09 12:47:00+00:00,100.0,True,CAL FIRE Tulare Unit / USFS - Sequoia National Forest,1099.775,81.15708333333333,18.466666666666665,0.0,0.18875,0.0,0.0,0.0,404.03,0.1,14,pass,13.26083333333331,08,summer
2017-08-01,madera,37.44663,-119.64622,Railroad Fire,12407.0,6,133.0,2017-08-29 12:19:00+00:00,2018-01-09 12:46:00+00:00,100.0,False,USFS - Sierra National Forest,510.16428571428565,89.71666666666667,0.0,0.0,0.004545454545454546,0.0,0.0,0.0,404.03,0.1,14,pass,14.666666666666671,08,summer
2017-08-01,mono,38.655,-119.55425,Slinkard Fire,8925.0,6,132.0,2017-08-29 15:15:00+00:00,2018-01-09 12:47:00+00:00,100.0,False,Bureau of Land Management - Owens Valley District ,2317.425,70.30714285714286,120.57142857142857,0.0,1.013,0.0,0.0,0.0,404.03,0.1,14,pass,14.24285714285714,08,summer
2017-08-01,lassen,40.43962,-120.22215,Mud Fire,6042.0,6,132.0,2017-08-29 14:36:00+00:00,2018-01-09 12:47:00+00:00,100.0,False,Bureau of Land Mangement ,1534.9294117647062,78.88333333333334,8.5,0.0,0.315,0.0,0.0,0.0,404.03,0.1,14,pass,16.30000000000001,08,summer
2017-08-01,lassen,40.69573,-119.93498999999998,R-4 Fire,18618.0,6,132.0,2017-08-30 08:30:00+00:00,2018-01-09 12:48:00+00:00,100.0,False,BLM Northern California District ,1534.9294117647062,78.88333333333334,8.5,0.0,0.315,0.0,0.0,0.0,404.0,0.04,12,pass,16.30000000000001,08,summer
2017-08-01,lassen,39.88800000000001,-120.066,Poslin Fire,859.0,5,155.0,2017-08-06 19:52:00+00:00,2018-01-09 12:21:00+00:00,100.0,False,Plumas National Forest,1534.9294117647062,78.88333333333334,8.5,0.0,0.315,0.0,0.0,0.0,406.26,0.16,13,pass,16.30000000000001,08,summer
2017-08-01,lassen,41.11989000000001,-120.74968,W-2 Fire,530.0,5,155.0,2017-08-06 15:29:00+00:00,2018-01-09 12:20:00+00:00,100.0,False,Bureau of Land Management Northern California District,1534.9294117647062,78.88333333333334,8.5,0.0,0.315,0.0,0.0,0.0,406.26,0.16,13,pass,16.30000000000001,08,summer
2017-08-01,lassen,40.80968,-120.48641,Peg Fire,157.0,3,136.0,2017-08-26 12:35:00+00:00,2018-01-09 12:44:00+00:00,100.0,False,CAL FIRE Lassen-Modoc Unit,1534.9294117647062,78.88333333333334,8.5,0.0,0.315,0.0,0.0,0.0,404.72,0.1,13,pass,16.30000000000001,08,summer
2017-08-01,butte,39.57701,-121.30209,Ponderosa Fire,4016.0,6,366.0,2017-08-29 13:16:00+00:00,2018-08-30 15:27:00+00:00,100.0,False,CAL FIRE / Butte County Fire,354.48,87.48124999999999,0.0,0.0,0.0,0.0,0.0,0.0,404.03,0.1,14,pass,14.137500000000003,08,summer
2017-07-01,yolo,38.49521,-122.0251,Winters Fire,2269.0,6,186.0,2017-07-06 12:41:00+00:00,2018-01-09 11:45:00+00:00,100.0,True,CAL FIRE Sonoma-Lake-Napa Unit ,28.93,88.05000000000001,0.0,0.0,0.0,0.0,0.0,0.0,407.74,0.43,13,pass,18.700000000000003,07,summer
2017-07-01,kern,35.59904,-119.08312,Quail Fire,1626.0,6,186.0,2017-07-06 12:29:00+00:00,2018-01-09 11:45:00+00:00,100.0,False,Kern County Fire,723.2100000000003,90.36785714285713,0.2857142857142857,0.0,0.00625,0.0,0.0,0.0,407.74,0.43,13,pass,14.964285714285708,07,summer
2017-07-01,kern,35.543,-118.654,Garden Fire,1350.0,6,162.0,2017-07-30 16:17:00+00:00,2018-01-09 12:14:00+00:00,100.0,False,Sequoia National Forest,723.2100000000003,90.36785714285713,0.2857142857142857,0.0,0.00625,0.0,0.0,0.0,407.1,0.14,15,pass,14.964285714285708,07,summer
2017-07-01,kern,34.94373,-119.44751,Hudson Fire,1083.0,6,175.0,2017-07-18 11:45:00+00:00,2018-01-09 11:59:00+00:00,100.0,False,Kern County Fire ,723.2100000000003,90.36785714285713,0.2857142857142857,0.0,0.00625,0.0,0.0,0.0,407.31,0.25,6,pass,14.964285714285708,07,summer
2017-07-01,siskiyou,41.59,-123.501,Orleans Complex,27276.0,6,166.0,2017-07-26 18:00:00+00:00,2018-01-09 12:07:00+00:00,100.0,False,Six Rivers National Forest,1035.4103448275862,82.87826086956522,1.3043478260869563,0.0,0.06692307692307692,0.0,0.0,0.0,406.66,0.12,15,pass,17.47826086956522,07,summer
2017-07-01,siskiyou,41.9808,-121.9741,Hill Fire,155.0,3,163.0,2017-07-29 16:33:00+00:00,2018-01-09 12:12:00+00:00,100.0,False,CAL FIRE Siskiyou Unit,1035.4103448275862,82.87826086956522,1.3043478260869563,0.0,0.06692307692307692,0.0,0.0,0.0,406.09,0.19,6,pass,17.47826086956522,07,summer
2017-07-01,siskiyou,41.3975,-122.8428,Fay Fire,469.0,4,188.0,2017-07-05 11:05:00+00:00,2018-01-09 11:44:00+00:00,100.0,True,CAL FIRE Siskiyou Unit,1035.4103448275862,82.87826086956522,1.3043478260869563,0.0,0.06692307692307692,0.0,0.0,0.0,409.09,0.05,14,pass,17.47826086956522,07,summer
2017-07-01,siskiyou,41.86609,-122.73031,Klamath Fire,0.0,1,188.0,2017-07-04 15:21:00+00:00,2018-01-09 11:43:00+00:00,100.0,False,Klamath National Forest,1035.4103448275862,82.87826086956522,1.3043478260869563,0.0,0.06692307692307692,0.0,0.0,0.0,409.34,0.21,12,pass,17.47826086956522,07,summer
2017-07-01,siskiyou,41.702,-123.508,Clear Complex (merged into Eclipse Complex),0.0,1,167.0,2017-07-25 12:45:00+00:00,2018-01-09 12:05:00+00:00,100.0,False,Klamath National Forest,1035.4103448275862,82.87826086956522,1.3043478260869563,0.0,0.06692307692307692,0.0,0.0,0.0,406.38,0.05,10,pass,17.47826086956522,07,summer
2017-07-01,sacramento,38.5181,-121.104,Latrobe Fire,1286.0,6,166.0,2017-07-26 14:45:00+00:00,2018-01-09 12:06:00+00:00,100.0,False,CAL FIRE Amador-El Dorado Unit,39.88181818181818,88.3,0.0,0.0,0.0,0.0,0.0,0.0,406.66,0.12,15,pass,17.599999999999994,07,summer
2017-07-01,el dorado,38.559707,-120.70013,Ranch Fire,140.0,3,166.0,2017-07-26 13:58:00+00:00,2018-01-09 12:06:00+00:00,100.0,True,CAL FIRE Amador - El Dorado Unit,1204.3545454545454,78.01780303030304,38.27272727272727,0.0,0.017222222222222222,0.0,0.0,0.0,406.66,0.12,15,pass,14.381060606060615,07,summer
2017-07-01,el dorado,38.538332,-121.039267,Largo Fire,236.0,3,163.0,2017-07-30 01:45:00+00:00,2018-01-09 12:14:00+00:00,100.0,False,CAL FIRE Amador-El Dorado Unit,1204.3545454545454,78.01780303030304,38.27272727272727,0.0,0.017222222222222222,0.0,0.0,0.0,407.1,0.14,15,pass,14.381060606060615,07,summer
2017-07-01,el dorado,38.67474,-121.06088,Rosado Fire,13.0,1,180.0,2017-07-12 13:51:00+00:00,2018-01-09 11:53:00+00:00,100.0,False,CAL FIRE Amador-El Dorado Unit,1204.3545454545454,78.01780303030304,38.27272727272727,0.0,0.017222222222222222,0.0,0.0,0.0,406.74,0.38,10,pass,14.381060606060615,07,summer
2017-07-01,el dorado,38.69775,-120.73757,Woodland Fire,13.0,1,167.0,2017-07-25 14:13:00+00:00,2018-01-09 12:06:00+00:00,100.0,False,CAL FIRE Amador-El Dorado Unit,1204.3545454545454,78.01780303030304,38.27272727272727,0.0,0.017222222222222222,0.0,0.0,0.0,406.38,0.05,10,pass,14.381060606060615,07,summer
2017-08-01,trinity,40.76025,-123.10003,Helena - Fork Fire,21846.0,6,131.0,2017-08-30 18:00:00+00:00,2018-01-09 12:49:00+00:00,100.0,False,Shasta-Trinity National Forest,856.48,86.39615384615385,0.0,0.0,0.464,0.0,0.0,0.0,404.0,0.04,12,pass,18.361538461538444,08,summer
2017-08-01,trinity,40.17598,-123.36882,Ruth Complex,4736.0,6,154.0,2017-08-07 22:30:00+00:00,2018-01-09 12:27:00+00:00,100.0,False,Six Rivers National Forest,856.48,86.39615384615385,0.0,0.0,0.464,0.0,0.0,0.0,405.4,0.44,6,pass,18.361538461538444,08,summer
2017-08-01,nevada,39.34292,-121.12004,Pleasant Fire,392.0,4,131.0,2017-08-30 15:38:00+00:00,2018-01-09 12:48:00+00:00,100.0,True,CAL FIRE Nevada-Yuba-Placer Unit,1050.6470588235297,79.84375000000001,22.625,0.0,0.18500000000000005,0.0,0.0,0.0,404.0,0.04,12,pass,13.987499999999983,08,summer
2017-08-01,fresno,36.36113,-120.32685,Coalinga Fire,102.0,3,131.0,2017-08-30 16:51:00+00:00,2018-01-09 12:48:00+00:00,100.0,False,CAL FIRE Fresno-Kings Unit,755.284,85.32777777777778,12.388888888888891,0.0,0.003076923076923077,0.0,0.0,0.0,404.0,0.04,12,pass,13.677777777777806,08,summer
2017-08-01,fresno,36.93332,-119.43376,Flat Fire,111.0,3,135.0,2017-08-26 14:31:00+00:00,2018-01-09 12:45:00+00:00,100.0,False,CAL FIRE / Fresno County Fire,755.284,85.32777777777778,12.388888888888891,0.0,0.003076923076923077,0.0,0.0,0.0,404.72,0.1,13,pass,13.677777777777806,08,summer
2017-08-01,fresno,36.7279,-119.28241,Hill Fire,69.0,2,134.0,2017-08-27 18:47:00+00:00,2018-01-09 12:46:00+00:00,100.0,False,CAL FIRE / Fresno County Fire,755.284,85.32777777777778,12.388888888888891,0.0,0.003076923076923077,0.0,0.0,0.0,404.66,0.31,12,pass,13.677777777777806,08,summer
2017-08-01,fresno,36.099681,-120.443545,Juniper Fire,31.0,1,138.0,2017-08-23 13:28:00+00:00,2018-01-09 12:44:00+00:00,100.0,False,CAL FIRE / Fresno County Fire,755.284,85.32777777777778,12.388888888888891,0.0,0.003076923076923077,0.0,0.0,0.0,404.33,0.13,12,pass,13.677777777777806,08,summer
2017-08-01,modoc,41.4844,-120.36659,4-4 Fire,28.0,1,132.0,2017-08-30 11:38:00+00:00,2018-01-09 12:48:00+00:00,100.0,False,CAL FIRE Lassen-Modoc Unit,1622.273333333333,76.55416666666666,24.66666666666667,0.0,0.517,0.0,0.0,0.0,404.0,0.04,12,pass,15.175000000000011,08,summer
2017-08-01,modoc,41.64469,-120.31814,4-10 Fire,27.0,1,131.0,2017-08-30 14:50:00+00:00,2018-01-09 12:48:00+00:00,100.0,True,CAL FIRE Lassen-Modoc Unit,1622.273333333333,76.55416666666666,24.66666666666667,0.0,0.517,0.0,0.0,0.0,404.0,0.04,12,pass,15.175000000000011,08,summer
2017-08-01,modoc,41.466,-120.321,Parker 2 Fire,7697.0,6,158.0,2017-08-03 14:00:00+00:00,2018-01-09 12:18:00+00:00,100.0,False,Modoc National Forest,1622.273333333333,76.55416666666666,24.66666666666667,0.0,0.517,0.0,0.0,0.0,406.38,0.03,6,pass,15.175000000000011,08,summer
2017-09-01,tulare,36.27138,-118.48555,Lion Fire,18900.0,6,103.0,2017-09-27 14:00:00+00:00,2018-01-09 13:27:00+00:00,100.0,False,USFS - Sequoia National Forest,1150.8894736842105,72.54117647058825,130.88235294117646,0.0,0.6812499999999999,0.0,0.0,0.0,402.25,0.14,11,pass,12.376470588235279,09,fall
2017-10-01,orange,33.87041,-117.70975,Canyon 2 Fire,9217.0,6,178.0,2017-10-09 09:51:00+00:00,2018-04-05 10:47:00+00:00,100.0,True,"Unified Command: CAL FIRE, Orange County, Anaheim City and Orange City",180.02499999999995,78.28125,3.875,0.0,0.007777777777777777,0.0,0.0,0.0,403.21,0.04,12,pass,10.887499999999989,10,fall
2017-10-01,nevada,39.24549,-121.12792,Lobo Fire (Wind Complex),821.0,5,123.0,2017-10-09 00:01:00+00:00,2018-02-09 09:51:00+00:00,100.0,True,CAL FIRE Nevada-Yuba-Placer Unit,1050.6470588235297,63.043749999999996,305.125,0.045454545454545456,0.8571428571428571,0.8571428571428571,0.0,0.0,403.21,0.04,12,pass,14.062499999999986,10,fall
2017-10-01,nevada,39.19325,-121.08406,McCourtney Fire (Wind Complex),76.0,2,123.0,2017-10-09 00:00:00+00:00,2018-02-09 09:52:00+00:00,100.0,True,CAL FIRE Nevada-Yuba-Placer Unit,1050.6470588235297,63.043749999999996,305.125,0.045454545454545456,0.8571428571428571,0.8571428571428571,0.0,0.0,403.21,0.04,12,pass,14.062499999999986,10,fall
2017-10-01,nevada,39.06414,-121.13737,Garden Fire,19.0,1,91.0,2017-10-10 12:30:00+00:00,2018-01-09 13:33:00+00:00,100.0,False,CAL FIRE Nevada-Yuba-Placer Unit,1050.6470588235297,63.043749999999996,305.125,0.045454545454545456,0.8571428571428571,0.8571428571428571,0.0,0.0,403.28,0.07,9,pass,14.062499999999986,10,fall
2017-10-01,calaveras,38.40234,-120.52953,Point Fire,130.0,3,92.0,2017-10-09 01:10:00+00:00,2018-01-09 13:33:00+00:00,100.0,True,CAL FIRE Tuolumne-Calaveras Unit,926.9,59.15,319.0,0.0,0.6799999999999999,0.0,0.0,0.0,403.21,0.04,12,pass,11.899999999999991,10,fall
2017-10-01,san luis obispo,35.28738,-120.44448,Pozo Fire,45.0,1,91.0,2017-10-09 14:30:00+00:00,2018-01-09 13:34:00+00:00,100.0,False,Los Padres National Forest,358.68125,73.66,93.0,0.0,0.07181818181818182,0.0,0.0,0.0,403.21,0.04,12,pass,16.39999999999999,10,fall
2017-10-01,san luis obispo,35.78615999999999,-120.96514,Lynch Fire,73.0,2,88.0,2017-10-13 12:14:00+00:00,2018-01-09 13:37:00+00:00,100.0,False,CAL FIRE San Luis Obispo Unit,358.68125,73.66,93.0,0.0,0.07181818181818182,0.0,0.0,0.0,403.56,0.06,6,pass,16.39999999999999,10,fall
2017-10-01,san luis obispo,35.41112000000001,-120.00353,Soda Fire,21.0,1,81.0,2017-10-20 12:13:00+00:00,2018-01-09 13:42:00+00:00,100.0,False,CAL FIRE San Luis Obispo Unit,358.68125,73.66,93.0,0.0,0.07181818181818182,0.0,0.0,0.0,404.39,0.13,10,pass,16.39999999999999,10,fall
2017-06-01,tulare,0.0,0.0,Schaeffer Fire,16031.0,6,198.0,2017-06-24 16:16:00+00:00,2018-01-09 11:01:00+00:00,100.0,False,Sequoia National Forest,1099.775,76.44871323529412,92.75,0.1,0.23222222222222225,0.0,0.0,0.0,408.41,0.34,14,pass,13.984926470588249,06,summer
2017-06-01,tulare,36.51912,-119.50606,King Incident,0.0,1,199.0,2017-06-23 22:32:00+00:00,2018-01-09 11:01:00+00:00,100.0,False,Tulare County,1099.775,76.44871323529412,92.75,0.1,0.23222222222222225,0.0,0.0,0.0,408.38,0.19,11,pass,13.984926470588249,06,summer
2017-06-01,tulare,36.45809000000001,-118.87676,Dinely Fire,339.0,4,215.0,2017-06-07 11:55:00+00:00,2018-01-09 10:28:00+00:00,100.0,True,CAL FIRE Tulare Unit,1099.775,76.44871323529412,92.75,0.1,0.23222222222222225,0.0,0.0,0.0,409.9,0.18,11,pass,13.984926470588249,06,summer
2017-06-01,tulare,35.8556,-118.74542,King Fire,135.0,3,209.0,2017-06-13 17:00:00+00:00,2018-01-09 10:32:00+00:00,100.0,True,CAL FIRE Tulare Unit,1099.775,76.44871323529412,92.75,0.1,0.23222222222222225,0.0,0.0,0.0,409.68,0.13,13,pass,13.984926470588249,06,summer
2017-06-01,tehama,40.10282,-122.27379,Paskenta Fire,42.0,1,198.0,2017-06-24 11:15:00+00:00,2018-01-09 11:07:00+00:00,100.0,False,CAL FIRE Tehama-Glenn Unit,369.2875,79.57500000000002,66.16666666666667,0.0,0.2533333333333333,0.0,0.0,0.0,408.41,0.34,14,pass,12.65000000000002,06,summer
2017-06-01,tehama,40.32063,-122.83208,Bolla Fire,60.0,2,205.0,2017-06-18 07:15:00+00:00,2018-01-09 10:35:00+00:00,100.0,False,CAL FIRE Tehama-Glenn Unit,369.2875,79.57500000000002,66.16666666666667,0.0,0.2533333333333333,0.0,0.0,0.0,408.72,0.06,7,pass,12.65000000000002,06,summer
2017-06-01,tehama,40.38944,-122.13088,Spring Fire ,78.0,2,218.0,2017-06-04 16:22:00+00:00,2018-01-09 10:25:00+00:00,100.0,False,CAL FIRE Tehama-Glenn Unit,369.2875,79.57500000000002,66.16666666666667,0.0,0.2533333333333333,0.0,0.0,0.0,409.72,0.08,9,pass,12.65000000000002,06,summer
2017-12-01,los angeles,34.31283,-118.35863,Creek Fire,15619.0,6,244.0,2017-12-05 03:44:00+00:00,2018-08-06 10:52:00+00:00,100.0,True,Angeles National Forest,485.675,63.24240384615384,250.1025641025641,0.0,0.0033333333333333327,0.0,0.0,0.0,407.41,0.23,10,pass,11.500192307692302,12,winter
2017-12-01,los angeles,34.45283,-118.58188,Rye Fire,6049.0,6,43.0,2017-12-05 11:31:00+00:00,2018-01-18 09:58:00+00:00,100.0,True,"Unified Command: CAL FIRE, Los Angeles County Fire, Ventura County Fire, Los Angeles County Sheriff's Office, and Ventura County Sheriff's Office",485.675,63.24240384615384,250.1025641025641,0.0,0.0033333333333333327,0.0,0.0,0.0,407.41,0.23,10,pass,11.500192307692302,12,winter
2017-12-01,los angeles,34.09454,-118.48178,Skirball Fire,422.0,4,48.0,2017-12-06 06:31:00+00:00,2018-01-23 08:11:00+00:00,100.0,True,Los Angeles City Fire,485.675,63.24240384615384,250.1025641025641,0.0,0.0033333333333333327,0.0,0.0,0.0,406.97,0.25,15,pass,11.500192307692302,12,winter
2017-12-01,san bernardino,34.16564,-117.33334,Little Mountain Fire,260.0,4,35.0,2017-12-05 13:35:00+00:00,2018-01-09 13:47:00+00:00,100.0,False,San Bernardino County Fire,1005.5568181818179,57.83,414.9,0.0,0.01310344827586207,0.0,0.0,0.06666666666666668,407.41,0.23,10,pass,12.466666666666676,12,winter
2017-12-01,san bernardino,34.21829,-117.40625,Meyers Fire,34.0,1,35.0,2017-12-05 13:28:00+00:00,2018-01-09 13:47:00+00:00,100.0,False,Unified Command: CAL FIRE / San Bernardino County Fire,1005.5568181818179,57.83,414.9,0.0,0.01310344827586207,0.0,0.0,0.06666666666666668,407.41,0.23,10,pass,12.466666666666676,12,winter
2017-09-01,trinity,40.2275,-123.03583,Buck Fire,13417.0,6,118.0,2017-09-12 17:42:00+00:00,2018-01-09 13:21:00+00:00,100.0,False,Shasta Trinity National Forest,856.4799999999998,74.46923076923076,106.84615384615385,0.0,0.6920000000000001,0.0,0.0,0.0,403.45,0.13,14,pass,15.815384615384616,09,fall
2017-09-01,shasta,40.98352,-121.81623,Berry Fire,995.0,5,119.0,2017-09-12 06:58:00+00:00,2018-01-09 13:21:00+00:00,100.0,True,CAL FIRE Shasta-Trinity Unit,590.3821428571429,78.42499999999998,68.91666666666667,0.0,0.3757142857142857,0.0,0.0,0.0,403.45,0.13,14,pass,14.733333333333363,09,fall
2017-09-01,shasta,40.71923,-122.02525,Hopper Fire,25.0,1,130.0,2017-09-01 11:21:00+00:00,2018-01-09 12:49:00+00:00,100.0,False,CAL FIRE Shasta-Trinity Unit,590.3821428571429,78.42499999999998,68.91666666666667,0.0,0.3757142857142857,0.0,0.0,0.0,404.26,0.09,15,pass,14.733333333333363,09,fall
2017-09-01,lake,39.44543,-122.85193999999998,Skeleton Fire,200.0,3,118.0,2017-09-12 14:36:00+00:00,2018-01-09 13:20:00+00:00,100.0,False,Mendocino National Forest,761.8090909090909,74.38571428571429,98.71428571428572,0.0,0.146,0.0,0.0,0.0,403.45,0.13,14,pass,12.257142857142867,09,fall
2017-09-01,lake,39.42604,-123.03343999999998,Slides Fire,58.0,2,118.0,2017-09-12 16:08:00+00:00,2018-01-09 13:20:00+00:00,100.0,False,USFS - Mendocino National Forest,761.8090909090909,74.38571428571429,98.71428571428572,0.0,0.146,0.0,0.0,0.0,403.45,0.13,14,pass,12.257142857142867,09,fall
2017-09-01,lake,39.01748,-122.49327,Mule Fire,21.0,1,125.0,2017-09-05 14:55:00+00:00,2018-01-09 13:19:00+00:00,100.0,False,CAL FIRE Sonoma-Lake-Napa Unit,761.8090909090909,74.38571428571429,98.71428571428572,0.0,0.146,0.0,0.0,0.0,403.45,0.25,12,pass,12.257142857142867,09,fall
2017-09-01,del norte,41.98128,-124.01168,Hole Fire,40.0,1,119.0,2017-09-12 12:45:00+00:00,2018-01-09 13:20:00+00:00,100.0,False,Six Rivers National Forest,486.26666666666665,63.85,219.0,0.0,1.4075,0.0,0.0,0.0,403.45,0.13,14,pass,7.566666666666677,09,fall
2017-09-01,butte,39.44257,-121.60683,Pacific Fire,12.0,1,118.0,2017-09-12 17:24:00+00:00,2018-01-09 13:21:00+00:00,100.0,False,CAL FIRE/Butte County Fire,376.65625,79.0375,37.75,0.0,0.21916666666666665,0.0,0.0,0.0,403.45,0.13,14,pass,13.049999999999997,09,fall
2017-09-01,butte,39.8255,-121.7127,32 Fire,28.0,1,106.0,2017-09-25 11:03:00+00:00,2018-01-09 13:24:00+00:00,100.0,False,CAL FIRE / Butte County Fire,376.65625,79.0375,37.75,0.0,0.21916666666666665,0.0,0.0,0.0,402.96,0.09,14,pass,13.049999999999997,09,fall
2017-09-01,butte,40.07613,-121.56858,Soda Fire,143.0,3,102.0,2017-09-28 14:46:00+00:00,2018-01-09 13:27:00+00:00,100.0,False,CAL FIRE / Butte County Fire,376.65625,79.0375,37.75,0.0,0.21916666666666665,0.0,0.0,0.0,402.68,0.21,13,pass,13.049999999999997,09,fall
2017-05-01,fresno,36.12089,-120.37116,Elm Fire,10343.0,6,235.0,2017-05-18 13:11:00+00:00,2018-01-09 10:04:00+00:00,100.0,True,CAL FIRE/Fresno County Fire,672.225,69.55588235294118,171.94117647058826,0.0,0.11076923076923076,0.0,0.0,0.0,410.23,0.13,9,pass,13.04117647058824,05,spring
2017-05-01,fresno,36.60736,-120.5828,Manning Fire,70.0,2,234.0,2017-05-19 23:28:00+00:00,2018-01-09 10:05:00+00:00,100.0,False,CAL FIRE Fresno-Kings Unit,672.225,69.55588235294118,171.94117647058826,0.0,0.11076923076923076,0.0,0.0,0.0,410.33,0.09,9,pass,13.04117647058824,05,spring
2017-05-01,fresno,36.45491,-120.2445,Sonoma Fire,400.0,4,243.0,2017-05-10 15:27:00+00:00,2018-01-09 09:55:00+00:00,100.0,False,CAL FIRE/Fresno County Fire,672.225,69.55588235294118,171.94117647058826,0.0,0.11076923076923076,0.0,0.0,0.0,408.88,0.22,13,pass,13.04117647058824,05,spring
2017-05-01,fresno,36.61332,-120.7109,Panoche Fire,18.0,1,225.0,2017-05-28 16:16:00+00:00,2018-01-09 10:21:00+00:00,100.0,False,CAL FIRE Fresno-Kings Unit,672.225,69.55588235294118,171.94117647058826,0.0,0.11076923076923076,0.0,0.0,0.0,409.81,0.14,14,pass,13.04117647058824,05,spring
2017-05-01,fresno,36.96642,-119.58292,Rusty Fire,16.0,1,226.0,2017-05-28 07:49:00+00:00,2018-01-09 10:17:00+00:00,100.0,False,CAL FIRE Fresno-Kings Unit,672.225,69.55588235294118,171.94117647058826,0.0,0.11076923076923076,0.0,0.0,0.0,409.81,0.14,14,pass,13.04117647058824,05,spring
2017-05-01,san luis obispo,35.34541,-120.76464,Camp Fire,225.0,3,236.0,2017-05-18 08:48:00+00:00,2018-01-09 10:03:00+00:00,100.0,False,CAL FIRE San Luis Obispo Unit,351.6764705882353,69.53636363636363,138.0909090909091,0.0,0.30250000000000005,0.0,0.0,0.0,410.23,0.13,9,pass,13.854545454545423,05,spring
2017-05-01,san luis obispo,35.556667,-120.474,Rocky Fire,17.0,1,233.0,2017-05-20 13:11:00+00:00,2018-01-09 10:06:00+00:00,100.0,False,CAL FIRE San Luis Obispo Unit,351.6764705882353,69.53636363636363,138.0909090909091,0.0,0.30250000000000005,0.0,0.0,0.0,410.02,0.12,11,pass,13.854545454545423,05,spring
2017-05-01,san luis obispo,35.85253,-120.80411,Range Fire,0.0,1,234.0,2017-05-19 13:10:00+00:00,2018-01-09 10:05:00+00:00,100.0,False,Department of Defense - Camp Roberts,351.6764705882353,69.53636363636363,138.0909090909091,0.0,0.30250000000000005,0.0,0.0,0.0,410.33,0.09,9,pass,13.854545454545423,05,spring
2017-05-01,san luis obispo,35.21177,-119.87525,Arrow Fire,225.0,3,238.0,2017-05-15 13:58:00+00:00,2018-01-09 09:57:00+00:00,100.0,False,CAL FIRE San Luis Obispo Unit,351.6764705882353,69.53636363636363,138.0909090909091,0.0,0.30250000000000005,0.0,0.0,0.0,411.31,0.08,6,pass,13.854545454545423,05,spring
2017-05-01,san luis obispo,35.78286,-120.22647,Olive Fire,130.0,3,251.0,2017-05-02 14:32:00+00:00,2018-01-09 09:54:00+00:00,100.0,False,CAL FIRE San Luis Obispo Unit,351.6764705882353,69.53636363636363,138.0909090909091,0.0,0.30250000000000005,0.0,0.0,0.0,409.04,0.26,6,pass,13.854545454545423,05,spring
2017-05-01,san luis obispo,35.6879,-120.3317,Shandon Fire,12.0,1,246.0,2017-05-07 16:41:00+00:00,2018-01-09 09:55:00+00:00,100.0,False,CAL FIRE San Luis Obispo Unit,351.6764705882353,69.53636363636363,138.0909090909091,0.0,0.30250000000000005,0.0,0.0,0.0,409.21,0.16,13,pass,13.854545454545423,05,spring
2017-05-01,kings,35.98300000000001,-119.91508,City Fire,20.0,1,235.0,2017-05-18 12:54:00+00:00,2018-01-09 10:04:00+00:00,100.0,False,CAL FIRE/Fresno County Fire,88.92,77.88333333333333,31.16666666666667,0.0,0.3655555555555556,0.0,0.0,0.0,410.23,0.13,9,pass,14.533333333333346,05,spring
2017-05-01,riverside,33.97155,-117.44148,Moraga Fire,14.0,1,235.0,2017-05-18 17:25:00+00:00,2018-01-09 10:05:00+00:00,100.0,False,CAL FIRE/Riverside County Fire,585.9175,75.77045454545456,95.22727272727272,0.39333333333333337,0.24875,0.16666666666666666,0.0,0.0,410.23,0.13,9,pass,14.059090909090926,05,spring
2017-05-01,riverside,33.882870000000004,-116.99651,Lamb Fire,120.0,3,228.0,2017-05-25 14:48:00+00:00,2018-01-09 10:16:00+00:00,100.0,False,CAL FIRE/Riverside County Fire,585.9175,75.77045454545456,95.22727272727272,0.39333333333333337,0.24875,0.16666666666666666,0.0,0.0,410.11,0.1,15,pass,14.059090909090926,05,spring
2017-05-01,riverside,33.585770000000004,-116.07429,Serenas Fire,48.0,1,225.0,2017-05-28 15:27:00+00:00,2018-01-09 10:21:00+00:00,100.0,False,CAL FIRE Riverside Unit,585.9175,75.77045454545456,95.22727272727272,0.39333333333333337,0.24875,0.16666666666666666,0.0,0.0,409.81,0.14,14,pass,14.059090909090926,05,spring
2017-05-01,riverside,33.96419,-117.20507,Smiley Fire,35.0,1,232.0,2017-05-21 16:12:00+00:00,2018-01-09 10:07:00+00:00,100.0,False,CAL FIRE/ Riverside County Fire,585.9175,75.77045454545456,95.22727272727272,0.39333333333333337,0.24875,0.16666666666666666,0.0,0.0,409.96,0.15,15,pass,14.059090909090926,05,spring
2017-05-01,riverside,33.94673,-117.17773,Moreno Fire,10.0,1,230.0,2017-05-23 13:13:00+00:00,2018-01-09 10:08:00+00:00,100.0,False,CAL FIRE/Riverside County Fire,585.9175,75.77045454545456,95.22727272727272,0.39333333333333337,0.24875,0.16666666666666666,0.0,0.0,410.02,0.09,15,pass,14.059090909090926,05,spring
2017-08-01,tuolumne,37.65986,-120.31157,Falls Fire,20.0,1,160.0,2017-08-01 16:33:00+00:00,2018-01-09 12:16:00+00:00,100.0,False,CAL FIRE Tuolumne-Calaveras Unit,1094.1125000000004,82.30714285714285,45.0,0.0,0.125,0.0,0.0,0.0,406.33,0.08,8,pass,13.899999999999991,08,summer
2017-08-01,humboldt,40.39799,-123.57562,Sway Fire,19.0,1,161.0,2017-08-01 10:23:00+00:00,2018-01-09 12:16:00+00:00,100.0,False,Six Rivers National Forest,233.45,75.99444444444444,52.0,0.0,0.05321428571428572,0.0,0.0,0.0,406.33,0.08,8,pass,12.566666666666663,08,summer
2017-08-01,humboldt,40.11794,-123.76099,Saw Fire,85.0,2,159.0,2017-08-03 11:58:00+00:00,2018-01-09 12:17:00+00:00,100.0,False,CAL FIRE Humboldt-Del Norte Unit,233.45,75.99444444444444,52.0,0.0,0.05321428571428572,0.0,0.0,0.0,406.38,0.03,6,pass,12.566666666666663,08,summer
2017-08-01,humboldt,40.27582,-123.64281,Blocksburg Fire,30.0,1,158.0,2017-08-03 16:41:00+00:00,2018-01-09 12:18:00+00:00,100.0,False,CAL FIRE Humboldt-Del Norte Unit,233.45,75.99444444444444,52.0,0.0,0.05321428571428572,0.0,0.0,0.0,406.38,0.03,6,pass,12.566666666666663,08,summer
2017-08-01,humboldt,40.03697,-123.64214,Miller Fire,34.0,1,130.0,2017-08-31 13:57:00+00:00,2018-01-09 12:49:00+00:00,100.0,False,CAL FIRE/Humboldt-Del Norte Unit,233.45,75.99444444444444,52.0,0.0,0.05321428571428572,0.0,0.0,0.0,404.17,0.24,13,pass,12.566666666666663,08,summer
2017-08-01,humboldt,41.02705,-123.63721,Translator Fire,40.0,1,134.0,2017-08-28 08:01:00+00:00,2018-01-09 12:46:00+00:00,100.0,False,Shasta Trinity National Forest,233.45,75.99444444444444,52.0,0.0,0.05321428571428572,0.0,0.0,0.0,404.05,0.15,4,pass,12.566666666666663,08,summer
2017-08-01,san bernardino,34.084920000000004,-117.03826,Bryant Fire,325.0,4,158.0,2017-08-03 15:35:00+00:00,2018-01-09 12:18:00+00:00,100.0,True,CAL FIRE San Bernardino Unit / San Bernardino National Forest / City of Yucaipa ,958.8659090909093,88.091935483871,4.806451612903227,0.0,0.3846428571428571,0.0,0.0,0.0,406.38,0.03,6,pass,13.480645161290354,08,summer
2017-08-01,los angeles,34.23925,-117.85182,Rincon Fire,10.0,1,158.0,2017-08-03 16:21:00+00:00,2018-01-09 12:18:00+00:00,100.0,False,Angeles National Forest,491.15238095238107,82.93536585365855,1.4390243902439024,0.0,0.0372093023255814,0.0,0.0,0.0,406.38,0.03,6,pass,11.182926829268297,08,summer
2017-08-01,los angeles,34.52055,-118.62882,Castaic Fire,30.0,1,203.0,2017-08-31 16:32:00+00:00,2018-03-22 16:34:00+00:00,100.0,False,Los Angeles County Fire,491.15238095238107,82.93536585365855,1.4390243902439024,0.0,0.0372093023255814,0.0,0.0,0.0,404.17,0.24,13,pass,11.182926829268297,08,summer
2017-09-01,los angeles,34.22957,-118.2674,La Tuna Fire ,7194.0,6,129.0,2017-09-01 13:26:00+00:00,2018-01-09 12:49:00+00:00,100.0,False,"LA City, Burbank Fire Department",499.153125,77.2670731707317,25.78048780487805,0.0,0.1509090909090909,0.0,0.0,0.0,404.26,0.09,15,pass,10.885365853658556,09,fall
2017-09-01,kern,35.76,-118.406,Caldwell Fire,1319.0,6,129.0,2017-09-01 14:37:00+00:00,2018-01-09 12:50:00+00:00,100.0,False,Sequoia National Forest,715.21,79.70333333333333,35.46666666666667,0.0,0.3946666666666668,0.0,0.0,0.0,404.26,0.09,15,pass,13.606666666666655,09,fall
2017-09-01,kern,35.59302,-118.46734,Lakewood Fire,40.0,1,101.0,2017-09-29 15:58:00+00:00,2018-01-09 13:29:00+00:00,100.0,False,Kern County Fire,715.21,79.70333333333333,35.46666666666667,0.0,0.3946666666666668,0.0,0.0,0.0,403.23,0.19,14,pass,13.606666666666655,09,fall
2017-09-01,san diego,32.6001,-116.76997,Border Fire,130.0,3,130.0,2017-09-01 04:20:00+00:00,2018-01-09 12:50:00+00:00,100.0,True,CAL FIRE San Diego Unit,372.0575471698113,75.73289473684213,44.342105263157904,0.0,0.08290322580645161,0.0,0.0,0.0,404.26,0.09,15,pass,11.286842105263176,09,fall
2017-06-01,riverside,33.530045,-116.594422,Manzanita Fire,6309.0,6,196.0,2017-06-26 15:10:00+00:00,2018-01-09 11:08:00+00:00,100.0,False,CAL FIRE/Riverside County Fire,579.4476190476191,87.51875,14.625,0.0,0.0015151515151515152,0.0,0.0,0.0,408.8,0.07,9,pass,15.595833333333331,06,summer
2017-06-01,riverside,33.98639,-117.21314,Smiley Fire,153.0,3,204.0,2017-06-18 15:10:00+00:00,2018-01-09 10:46:00+00:00,100.0,False,CAL FIRE / Riverside County Fire,579.4476190476191,87.51875,14.625,0.0,0.0015151515151515152,0.0,0.0,0.0,408.72,0.06,7,pass,15.595833333333331,06,summer
2017-06-01,riverside,33.71025,-117.31924,Trellis Fire,26.0,1,204.0,2017-06-18 16:03:00+00:00,2018-01-09 10:59:00+00:00,100.0,False,CAL FIRE / Riverside County Fire,579.4476190476191,87.51875,14.625,0.0,0.0015151515151515152,0.0,0.0,0.0,408.72,0.06,7,pass,15.595833333333331,06,summer
2017-06-01,riverside,33.90965,-116.9669,Lambs Fire,10.0,1,204.0,2017-06-18 12:28:00+00:00,2018-01-09 10:35:00+00:00,100.0,False,CAL FIRE / Riverside County Fire,579.4476190476191,87.51875,14.625,0.0,0.0015151515151515152,0.0,0.0,0.0,408.72,0.06,7,pass,15.595833333333331,06,summer
2017-06-01,riverside,33.584036,-116.97203600000002,Valley Fire,33.0,1,209.0,2017-06-13 12:00:00+00:00,2018-01-09 10:32:00+00:00,100.0,False,CAL FIRE / Riverside County Fire,579.4476190476191,87.51875,14.625,0.0,0.0015151515151515152,0.0,0.0,0.0,409.68,0.13,13,pass,15.595833333333331,06,summer
2017-06-01,riverside,33.52584,-116.85226000000002,Reed Fire,20.0,1,209.0,2017-06-13 17:21:00+00:00,2018-01-09 10:32:00+00:00,100.0,False,CAL FIRE / Riverside County Fire,579.4476190476191,87.51875,14.625,0.0,0.0015151515151515152,0.0,0.0,0.0,409.68,0.13,13,pass,15.595833333333331,06,summer
2017-06-01,riverside,33.87107,-116.88097,Shirleon Fire ,10.0,1,218.0,2017-06-04 16:48:00+00:00,2018-01-09 10:26:00+00:00,100.0,False,CAL FIRE/Riverside County Fire,579.4476190476191,87.51875,14.625,0.0,0.0015151515151515152,0.0,0.0,0.0,409.72,0.08,9,pass,15.595833333333331,06,summer
2017-06-01,riverside,33.94788,-116.59719,Fairview Fire,26.0,1,221.0,2017-06-01 16:12:00+00:00,2018-01-09 10:23:00+00:00,100.0,False,CAL FIRE/Riverside County Fire,579.4476190476191,87.51875,14.625,0.0,0.0015151515151515152,0.0,0.0,0.0,409.25,0.34,10,pass,15.595833333333331,06,summer
2017-06-01,riverside,33.82165,-116.96079,Vernon Fire,27.0,1,219.0,2017-06-03 12:09:00+00:00,2018-01-09 10:24:00+00:00,100.0,False,CAL FIRE / Riverside County Fire,579.4476190476191,87.51875,14.625,0.0,0.0015151515151515152,0.0,0.0,0.0,409.66,0.17,12,pass,15.595833333333331,06,summer
2017-06-01,san luis obispo,35.4025,-120.4992,Hill Fire,1598.0,6,196.0,2017-06-26 15:27:00+00:00,2018-01-09 11:08:00+00:00,100.0,True,CAL FIRE San Luis Obispo Unit,351.6764705882353,78.19090909090909,34.54545454545455,0.0,0.0,0.0,0.0,0.0,408.8,0.07,9,pass,16.09090909090908,06,summer
2017-06-01,san luis obispo,35.6871,-120.3187,Lucy Fire,150.0,3,208.0,2017-06-14 11:44:00+00:00,2018-01-09 10:33:00+00:00,100.0,False,CAL FIRE San Luis Obispo Unit,351.6764705882353,78.19090909090909,34.54545454545455,0.0,0.0,0.0,0.0,0.0,409.48,0.17,8,pass,16.09090909090908,06,summer
2017-06-01,del norte,41.93323,-124.19629,Shore Fire,28.0,1,196.0,2017-06-26 21:30:00+00:00,2018-01-09 11:08:00+00:00,100.0,False,CAL FIRE Humboldt-Del Norte Unit,579.8,62.849999999999994,239.66666666666663,0.0,2.9933333333333336,0.0,0.0,0.0,408.8,0.07,9,pass,8.499999999999993,06,summer
2017-06-01,siskiyou,40.703775,-122.645079,King Fire,19.0,1,196.0,2017-06-26 12:30:00+00:00,2018-01-09 11:08:00+00:00,100.0,True,CAL FIRE Siskiyou Unit,1008.0166666666668,72.98863636363637,114.04545454545456,0.2,0.8506666666666667,0.2,0.0,0.0,408.8,0.07,9,pass,15.186363636363652,06,summer
2017-06-01,siskiyou,41.93006,-122.36545,Bogus Fire,56.0,2,204.0,2017-06-18 15:45:00+00:00,2018-01-09 10:59:00+00:00,100.0,False,CAL FIRE Siskiyou Unit,1008.0166666666668,72.98863636363637,114.04545454545456,0.2,0.8506666666666667,0.2,0.0,0.0,408.72,0.06,7,pass,15.186363636363652,06,summer
2017-06-01,siskiyou,41.841,-123.474,Salmon-August Complex ,0.0,1,197.0,2017-06-25 17:00:00+00:00,2018-01-09 11:07:00+00:00,100.0,False,CAL FIRE Siskiyou Unit / Klamath National Forest,1008.0166666666668,72.98863636363637,114.04545454545456,0.2,0.8506666666666667,0.2,0.0,0.0,408.69,0.17,10,pass,15.186363636363652,06,summer
2017-06-01,siskiyou,41.8721,-122.4571,Whitepine Fire,46.0,1,216.0,2017-06-06 16:38:00+00:00,2018-01-09 10:27:00+00:00,100.0,True,CAL FIRE Siskiyou Unit,1008.0166666666668,72.98863636363637,114.04545454545456,0.2,0.8506666666666667,0.2,0.0,0.0,409.92,0.08,10,pass,15.186363636363652,06,summer
2017-04-01,fresno,36.07228,-120.26561,Jayne Fire,5738.0,6,263.0,2017-04-20 15:40:00+00:00,2018-01-09 09:51:00+00:00,100.0,True,CAL FIRE Fresno Kings Unit,672.225,60.41764705882353,316.5882352941176,0.0,2.398461538461538,0.0,0.0,0.0,409.85,0.19,14,pass,11.752941176470578,04,spring
2017-04-01,fresno,36.530836,-120.206592,El Dorado Fire,976.0,5,255.0,2017-04-28 15:40:00+00:00,2018-01-09 09:52:00+00:00,100.0,False,Fresno County Fire ,672.225,60.41764705882353,316.5882352941176,0.0,2.398461538461538,0.0,0.0,0.0,409.57,0.1,4,pass,11.752941176470578,04,spring
2017-04-01,fresno,36.5355,-120.6585,Tumey Fire,126.0,3,254.0,2017-04-29 17:15:00+00:00,2018-01-09 09:52:00+00:00,100.0,False,CAL FIRE Fresno-Kings Unit,672.225,60.41764705882353,316.5882352941176,0.0,2.398461538461538,0.0,0.0,0.0,409.5,0.26,4,pass,11.752941176470578,04,spring
2017-07-01,stanislaus,38.329,-119.782,Summit Complex,5247.0,6,161.0,2017-07-31 13:44:00+00:00,2018-01-09 12:15:00+00:00,100.0,False,Stanislaus National Forest,137.05999999999997,89.53333333333333,0.0,0.0,0.0,0.0,0.0,0.0,406.9,0.14,15,pass,14.333333333333343,07,summer
2017-07-01,stanislaus,37.81827,-120.65764,Willms Fire,19.0,1,174.0,2017-07-18 22:39:00+00:00,2018-01-09 12:01:00+00:00,100.0,False,CAL FIRE Tuolumne-Calaveras Unit,137.05999999999997,89.53333333333333,0.0,0.0,0.0,0.0,0.0,0.0,407.31,0.25,6,pass,14.333333333333343,07,summer
2017-07-01,riverside,33.689091999999995,-117.396404,Rose Fire,200.0,3,161.0,2017-07-31 14:22:00+00:00,2018-01-09 12:15:00+00:00,100.0,False,CAL FIRE / Riverside County Fire,571.3261904761905,91.71666666666667,0.2916666666666667,0.0,0.03333333333333333,0.0,0.0,0.0,406.9,0.14,15,pass,13.683333333333337,07,summer
2017-07-01,riverside,33.913089,-117.096233,Lisa Fire,11.0,1,190.0,2017-07-02 13:04:00+00:00,2018-01-09 11:16:00+00:00,100.0,False,CAL FIRE Riverside Unit,571.3261904761905,91.71666666666667,0.2916666666666667,0.0,0.03333333333333333,0.0,0.0,0.0,406.82,0.04,4,pass,13.683333333333337,07,summer
2017-07-01,riverside,33.75526,-117.25075,Ellis Fire,72.0,2,174.0,2017-07-18 15:34:00+00:00,2018-01-09 12:01:00+00:00,100.0,False,CAL FIRE/Riverside County Fire,571.3261904761905,91.71666666666667,0.2916666666666667,0.0,0.03333333333333333,0.0,0.0,0.0,407.31,0.25,6,pass,13.683333333333337,07,summer
2017-07-01,riverside,33.62613,-117.07975,Washington Fire,32.0,1,180.0,2017-07-13 10:28:00+00:00,2018-01-09 11:54:00+00:00,100.0,False,CALFIRE / Riverside County Fire,571.3261904761905,91.71666666666667,0.2916666666666667,0.0,0.03333333333333333,0.0,0.0,0.0,406.67,0.18,11,pass,13.683333333333337,07,summer
2017-07-01,riverside,33.77896,-117.24091,Navajo Fire,10.0,1,179.0,2017-07-13 14:14:00+00:00,2018-01-09 11:54:00+00:00,100.0,False,CAL FIRE / Riverside County Fire,571.3261904761905,91.71666666666667,0.2916666666666667,0.0,0.03333333333333333,0.0,0.0,0.0,406.67,0.18,11,pass,13.683333333333337,07,summer
2017-07-01,riverside,33.85323,-117.48195,Eagle Fire,205.0,3,188.0,2017-07-04 16:55:00+00:00,2018-01-09 11:44:00+00:00,100.0,False,CAL FIRE / Riverside County Fire,571.3261904761905,91.71666666666667,0.2916666666666667,0.0,0.03333333333333333,0.0,0.0,0.0,409.34,0.21,12,pass,13.683333333333337,07,summer
2017-07-01,riverside,33.99316,-117.48405,Jurupa Fire,35.0,1,188.0,2017-07-04 15:20:00+00:00,2018-01-09 11:43:00+00:00,100.0,False,CAL FIRE / Riverside County Fire,571.3261904761905,91.71666666666667,0.2916666666666667,0.0,0.03333333333333333,0.0,0.0,0.0,409.34,0.21,12,pass,13.683333333333337,07,summer
2017-07-01,riverside,33.819759999999995,-117.18552,Placentia Fire,63.0,2,164.0,2017-07-28 18:11:00+00:00,2018-01-09 12:07:00+00:00,100.0,False,Riverside County Fire Department,571.3261904761905,91.71666666666667,0.2916666666666667,0.0,0.03333333333333333,0.0,0.0,0.0,407.07,0.12,9,pass,13.683333333333337,07,summer
2017-07-01,riverside,33.877390000000005,-117.16215,Lago Fire,50.0,1,189.0,2017-07-03 15:14:00+00:00,2018-01-09 11:41:00+00:00,100.0,False,CAL FIRE/Riverside County Fire Department,571.3261904761905,91.71666666666667,0.2916666666666667,0.0,0.03333333333333333,0.0,0.0,0.0,407.38,0.06,5,pass,13.683333333333337,07,summer
2017-07-01,riverside,33.96896,-117.25411,Timber Fire,30.0,1,189.0,2017-07-03 19:31:00+00:00,2018-01-09 11:42:00+00:00,100.0,False,CAL FIRE / Riverside County Fire,571.3261904761905,91.71666666666667,0.2916666666666667,0.0,0.03333333333333333,0.0,0.0,0.0,407.38,0.06,5,pass,13.683333333333337,07,summer
2017-07-01,riverside,33.91806,-116.99321,Canyon Fire,10.0,1,189.0,2017-07-03 13:34:00+00:00,2018-01-09 11:41:00+00:00,100.0,False,CAL FIRE/Riverside County Fire Department ,571.3261904761905,91.71666666666667,0.2916666666666667,0.0,0.03333333333333333,0.0,0.0,0.0,407.38,0.06,5,pass,13.683333333333337,07,summer
2017-07-01,san bernardino,34.19076,-117.26969,Mile Fire,100.0,2,161.0,2017-07-31 14:44:00+00:00,2018-01-09 12:16:00+00:00,100.0,False,San Bernardino National Forest,958.4659090909092,91.03064516129031,0.6129032258064516,0.0,0.06071428571428573,0.0,0.0,0.0,406.9,0.14,15,pass,13.738709677419394,07,summer
2017-07-01,san bernardino,34.09773,-117.10567,Bridge Fire,460.0,4,272.0,2017-07-14 14:23:00+00:00,2018-04-12 14:52:00+00:00,100.0,False,"Unified Command: CAL FIRE San Bernardino-Inyo-Mono Unit, USFS - San Bernardino National Forest and City of Highland",958.4659090909092,91.03064516129031,0.6129032258064516,0.0,0.06071428571428573,0.0,0.0,0.0,406.91,0.1,11,pass,13.738709677419394,07,summer
2017-07-01,san bernardino,34.20152,-117.14466000000002,Dollar Fire,85.0,2,170.0,2017-07-22 13:35:00+00:00,2018-01-09 12:03:00+00:00,100.0,False,USFS - San Bernardino National Forest,958.4659090909092,91.03064516129031,0.6129032258064516,0.0,0.06071428571428573,0.0,0.0,0.0,406.43,0.09,14,pass,13.738709677419394,07,summer
2017-07-01,san bernardino,34.139,-117.199,Seine Fire,20.0,1,170.0,2017-07-22 15:49:00+00:00,2018-01-09 12:03:00+00:00,100.0,False,San Bernardino National Forest - USFS ,958.4659090909092,91.03064516129031,0.6129032258064516,0.0,0.06071428571428573,0.0,0.0,0.0,406.43,0.09,14,pass,13.738709677419394,07,summer
2017-07-01,san bernardino,34.304722,-117.3125,Silver Fire,13.0,1,188.0,2017-07-04 13:15:00+00:00,2018-01-09 11:42:00+00:00,100.0,False,CAL FIRE San Bernardino Unit / San Bernardino National Forest,958.4659090909092,91.03064516129031,0.6129032258064516,0.0,0.06071428571428573,0.0,0.0,0.0,409.34,0.21,12,pass,13.738709677419394,07,summer
2017-07-01,san bernardino,34.412040000000005,-117.03031,High Fire,170.0,3,169.0,2017-07-23 15:53:00+00:00,2018-01-09 12:04:00+00:00,100.0,True,Unified Command: CAL FIRE San Bernardino-Inyo-Mono Unit / San Bernardino County Fire,958.4659090909092,91.03064516129031,0.6129032258064516,0.0,0.06071428571428573,0.0,0.0,0.0,407.27,0.3,12,pass,13.738709677419394,07,summer
2017-07-01,san bernardino,34.149,-117.189,Hidden Fire,46.0,1,180.0,2017-07-12 15:29:00+00:00,2018-01-09 11:54:00+00:00,100.0,False,San Bernardino National Forest,958.4659090909092,91.03064516129031,0.6129032258064516,0.0,0.06071428571428573,0.0,0.0,0.0,406.74,0.38,10,pass,13.738709677419394,07,summer
2017-07-01,sonoma,38.70289,-122.90217,Independence Fire,11.0,1,161.0,2017-07-31 23:17:00+00:00,2018-01-09 12:15:00+00:00,100.0,False,CAL FIRE Sonoma-Lake-Napa Unit,120.67241379310344,77.18124999999999,37.375,0.0,0.007407407407407408,0.0,0.0,0.0,406.9,0.14,15,pass,15.837500000000006,07,summer
2017-08-01,monterey,35.86596,-120.64584,Country Fire,82.0,2,154.0,2017-08-07 18:08:00+00:00,2018-01-09 12:27:00+00:00,100.0,False,CAL FIRE San Benito-Monterey,159.08421052631581,75.96818181818182,28.90909090909091,0.0,0.01,0.0,0.0,0.0,405.4,0.44,6,pass,13.100000000000009,08,summer
2017-07-01,plumas,39.9034,-120.9761,Minerva Fire,4310.0,6,163.0,2017-07-29 18:55:00+00:00,2018-01-09 12:08:00+00:00,100.0,False,U.S. Forest Service - Plumas National Forest,1311.1454545454546,80.68749999999999,3.25,0.0,0.015,0.0,0.0,0.0,406.09,0.19,6,pass,19.575000000000017,07,summer
2017-07-01,tuolumne,37.905545,-120.40813500000002,Jacksonville Fire,690.0,5,163.0,2017-07-29 13:50:00+00:00,2018-01-09 12:09:00+00:00,100.0,True,CAL FIRE Tuolumne-Calaveras Unit,1094.1125,84.0375,29.25,0.0,0.005,0.0,0.0,0.0,406.09,0.19,6,pass,15.725000000000009,07,summer
2017-07-01,tuolumne,37.90014,-120.36005,Twist Fire,124.0,3,162.0,2017-07-30 16:28:00+00:00,2018-01-09 12:14:00+00:00,100.0,False,CAL FIRE Tuolumne-Calaveras Unit ,1094.1125,84.0375,29.25,0.0,0.005,0.0,0.0,0.0,407.1,0.14,15,pass,15.725000000000009,07,summer
2017-07-01,shasta,40.69259,-122.17383999999998,Sky Fire,17.0,1,163.0,2017-07-29 17:29:00+00:00,2018-01-09 12:12:00+00:00,100.0,False,CAL FIRE Shasta Trinity Unit,608.1034482758621,87.88076923076926,3.7692307692307687,0.0,0.0,0.0,0.0,0.0,406.09,0.19,6,pass,17.161538461538456,07,summer
2017-07-01,shasta,40.47106,-122.43608,Laverne Fire,180.0,3,174.0,2017-07-18 12:39:00+00:00,2018-01-09 12:01:00+00:00,100.0,True,CAL FIRE Shasta-Trintiy Unit,608.1034482758621,87.88076923076926,3.7692307692307687,0.0,0.0,0.0,0.0,0.0,407.31,0.25,6,pass,17.161538461538456,07,summer
2017-07-01,shasta,40.69554,-122.0122,Oak Fire,128.0,3,192.0,2017-07-01 00:48:00+00:00,2018-01-09 11:16:00+00:00,100.0,False,CAL FIRE Shasta-Trinity Unit,608.1034482758621,87.88076923076926,3.7692307692307687,0.0,0.0,0.0,0.0,0.0,407.29,0.76,11,pass,17.161538461538456,07,summer
2017-07-01,shasta,40.48972,-122.38618999999998,North Fire,10.0,1,177.0,2017-07-15 18:10:00+00:00,2018-01-09 11:56:00+00:00,100.0,True,CAL FIRE Shasta-Trinity Unit,608.1034482758621,87.88076923076926,3.7692307692307687,0.0,0.0,0.0,0.0,0.0,407.19,0.17,14,pass,17.161538461538456,07,summer
2017-12-01,san diego,33.3237,-117.163,Lilac Fire,4100.0,6,33.0,2017-12-07 11:15:00+00:00,2018-01-09 13:47:00+00:00,100.0,True,CAL FIRE San Diego Unit,378.7366336633664,63.07368421052631,266.3157894736842,0.0,0.05574712643678161,0.0,0.0,0.0,406.61,0.25,15,pass,12.999999999999993,12,winter
2017-09-01,riverside,33.974709999999995,-117.09984,Palmer Fire,3874.0,6,128.0,2017-09-02 13:33:00+00:00,2018-01-09 12:50:00+00:00,100.0,True,CAL FIRE Riverside Unit,576.7813953488372,82.69090909090909,22.72727272727273,0.0,0.3806060606060606,0.0,0.0,0.0,404.2,0.15,15,pass,12.590909090909065,09,fall
2017-09-01,riverside,33.74925,-117.10301,Melba Fire,35.0,1,101.0,2017-09-29 18:01:00+00:00,2018-01-09 13:28:00+00:00,100.0,False,CAL FIRE / Riverside County Fire,576.7813953488372,82.69090909090909,22.72727272727273,0.0,0.3806060606060606,0.0,0.0,0.0,403.23,0.19,14,pass,12.590909090909065,09,fall
2017-09-01,riverside,33.73547,-117.33364,Ellie Fire,34.0,1,120.0,2017-09-10 13:49:00+00:00,2018-01-09 13:19:00+00:00,100.0,False,CAL FIRE / Riverside County Fire,576.7813953488372,82.69090909090909,22.72727272727273,0.0,0.3806060606060606,0.0,0.0,0.0,403.5,0.34,8,pass,12.590909090909065,09,fall
2017-09-01,orange,33.8668,-117.68598,Canyon Fire,2662.0,6,183.0,2017-09-25 13:03:00+00:00,2018-03-28 11:36:00+00:00,100.0,False,CAL FIRE Riverside / USFS / Orange County Fire Authority / Anaheim Fire / Corona Fire Department,168.59473684210528,78.34375,1.75,0.0,0.07294117647058825,0.0,0.0,0.0,402.96,0.09,14,pass,9.387499999999989,09,fall
2017-09-01,plumas,39.75312,-120.75485,Eureka Fire,2575.0,6,125.0,2017-09-05 18:38:00+00:00,2018-01-09 13:18:00+00:00,100.0,False,Plumas National Forest ,1306.99,69.34375,198.625,0.0,0.9714285714285716,0.0,0.0,0.0,403.45,0.25,12,pass,16.462500000000006,09,fall
2017-09-01,plumas,40.13278,-120.9204,Mills File,79.0,2,127.0,2017-09-03 20:32:00+00:00,2018-01-09 13:18:00+00:00,100.0,False,Plumas National Forest,1306.99,69.34375,198.625,0.0,0.9714285714285716,0.0,0.0,0.0,404.01,0.15,14,pass,16.462500000000006,09,fall
2017-08-01,kings,36.05187,-120.05404,I-5 Fire,2312.0,6,137.0,2017-08-24 18:13:00+00:00,2018-01-09 12:44:00+00:00,100.0,False,Kings County,88.92,92.38333333333333,0.0,0.0,0.007777777777777778,0.0,0.0,0.0,404.75,0.24,9,pass,15.266666666666694,08,summer
2017-07-01,tulare,36.0226,-118.94252,Roadrunner Fire,2289.0,6,162.0,2017-07-30 17:43:00+00:00,2018-01-09 12:15:00+00:00,100.0,False,CAL FIRE Tulare Unit,1152.7947368421053,83.00874999999999,5.0,0.0,0.0025,0.0,0.0,0.0,407.1,0.14,15,pass,13.857500000000002,07,summer
2017-07-01,tulare,36.18815,-118.78928,Fox Fire,59.0,2,175.0,2017-07-17 15:32:00+00:00,2018-01-09 11:59:00+00:00,100.0,False,CAL FIRE Tulare Unit,1152.7947368421053,83.00874999999999,5.0,0.0,0.0025,0.0,0.0,0.0,407.52,0.14,12,pass,13.857500000000002,07,summer
2017-07-01,tulare,36.64404,-118.99944,Hogback Fire,58.0,2,174.0,2017-07-18 15:50:00+00:00,2018-01-09 12:01:00+00:00,100.0,False,CAL FIRE Tulare Unit,1152.7947368421053,83.00874999999999,5.0,0.0,0.0025,0.0,0.0,0.0,407.31,0.25,6,pass,13.857500000000002,07,summer
2017-07-01,tulare,36.10858,-118.81979,Globe Fire,21.0,1,188.0,2017-07-05 08:24:00+00:00,2018-01-09 11:44:00+00:00,100.0,False,CAL FIRE Tulare Unit,1152.7947368421053,83.00874999999999,5.0,0.0,0.0025,0.0,0.0,0.0,409.09,0.05,14,pass,13.857500000000002,07,summer
2017-07-01,tulare,36.22265,-119.06598,Elephant Fire,416.0,4,172.0,2017-07-20 19:16:00+00:00,2018-01-09 12:02:00+00:00,100.0,False,CAL FIRE Tulare Unit,1152.7947368421053,83.00874999999999,5.0,0.0,0.0025,0.0,0.0,0.0,406.95,0.16,11,pass,13.857500000000002,07,summer
2017-05-01,san diego,32.65597,-116.80527,Gate Fire,2056.0,6,233.0,2017-05-20 23:19:00+00:00,2018-01-09 10:06:00+00:00,100.0,True,CAL FIRE San Diego Unit,377.1291262135922,67.7578947368421,143.8421052631579,0.0,1.2233707865168535,0.0,0.0,0.0,410.02,0.12,11,pass,10.910526315789454,05,spring
2017-05-01,san diego,33.34988,-117.39818,Range Fire,1000.0,5,228.0,2017-05-25 18:15:00+00:00,2018-01-09 10:17:00+00:00,100.0,False,Camp Pendleton Marine Base,377.1291262135922,67.7578947368421,143.8421052631579,0.0,1.2233707865168535,0.0,0.0,0.0,410.11,0.1,15,pass,10.910526315789454,05,spring
2017-05-01,san diego,33.3906,-117.32348,Deluz Fire,486.0,4,234.0,2017-05-19 14:45:00+00:00,2018-01-09 10:06:00+00:00,100.0,False,Camp Pendleton Marine Base,377.1291262135922,67.7578947368421,143.8421052631579,0.0,1.2233707865168535,0.0,0.0,0.0,410.33,0.09,9,pass,10.910526315789454,05,spring
2017-05-01,san diego,32.679,-116.29296,Ribbonwood Fire,25.0,1,229.0,2017-05-24 15:30:00+00:00,2018-01-09 10:10:00+00:00,100.0,False,CAL FIRE San Diego Unit,377.1291262135922,67.7578947368421,143.8421052631579,0.0,1.2233707865168535,0.0,0.0,0.0,410.11,0.07,15,pass,10.910526315789454,05,spring
2017-05-01,kern,35.4605,-118.85896,Ming Fire,506.0,5,233.0,2017-05-20 14:23:00+00:00,2018-01-09 10:07:00+00:00,100.0,False,Kern County Fire,711.7708333333335,72.82256944444444,106.2,0.0,0.122,0.0,0.0,0.0,410.02,0.12,11,pass,14.032638888888883,05,spring
2017-05-01,kern,35.60001,-118.4683,Hub Fire,31.0,1,242.0,2017-05-12 05:05:00+00:00,2018-01-09 09:55:00+00:00,100.0,False,Kern County Fire,711.7708333333335,72.82256944444444,106.2,0.0,0.122,0.0,0.0,0.0,409.45,0.05,10,pass,14.032638888888883,05,spring
2017-05-01,kern,35.41283,-118.84466,Bravo Fire,288.0,4,238.0,2017-05-15 14:05:00+00:00,2018-01-09 09:58:00+00:00,100.0,False,Kern County Fire,711.7708333333335,72.82256944444444,106.2,0.0,0.122,0.0,0.0,0.0,411.31,0.08,6,pass,14.032638888888883,05,spring
2017-05-01,kern,34.87128,-118.35296,Champagne Fire,10.0,1,225.0,2017-05-28 10:59:00+00:00,2018-01-09 10:17:00+00:00,100.0,False,Kern County Fire Department,711.7708333333335,72.82256944444444,106.2,0.0,0.122,0.0,0.0,0.0,409.81,0.14,14,pass,14.032638888888883,05,spring
2017-05-01,kern,35.71704000000001,-118.30601,Fay Fire,19.0,1,252.0,2017-05-01 12:44:00+00:00,2018-01-09 09:54:00+00:00,100.0,False,Kern County Fire,711.7708333333335,72.82256944444444,106.2,0.0,0.122,0.0,0.0,0.0,408.62,0.06,4,pass,14.032638888888883,05,spring
2017-05-01,santa barbara,34.9465,-119.8036,Wasioja Fire,190.0,3,233.0,2017-05-20 17:54:00+00:00,2018-01-09 10:07:00+00:00,100.0,False,Santa Barbara County,259.4368421052631,66.18214285714285,157.64285714285714,0.0,0.3058333333333333,0.16062632891254802,0.0,0.0,410.02,0.12,11,pass,10.149999999999991,05,spring
2017-05-01,merced,36.96655,-120.89261,Wright Fire,1800.0,6,241.0,2017-05-12 15:30:00+00:00,2018-01-09 09:56:00+00:00,100.0,False,CAL FIRE Madera-Mariposa-Merced Unit,68.39999999999999,76.35,42.0,0.0,0.14285714285714285,0.0,0.0,0.0,409.45,0.05,10,pass,15.242857142857133,05,spring
2017-09-01,stanislaus,38.12,-119.941,Creek Fire,1749.0,6,127.0,2017-09-03 16:23:00+00:00,2018-01-09 12:50:00+00:00,100.0,False,Stanislaus National Forest ,137.06,80.5,8.0,0.0,0.0075,0.0,0.0,0.0,404.01,0.15,14,pass,11.866666666666632,09,fall
2017-09-01,madera,37.21616,-119.48067,Mission Fire,1035.0,6,128.0,2017-09-03 13:06:00+00:00,2018-01-09 13:18:00+00:00,100.0,True,CAL FIRE Madera-Mariposa-Merced Unit / Sierra National Forest,547.7,80.55000000000001,23.33333333333333,0.0,0.4025,0.0,0.0,0.0,404.01,0.15,14,pass,13.766666666666666,09,fall
2017-09-01,madera,37.14624,-120.015509,Eastman Fire,429.0,4,112.0,2017-09-18 16:04:00+00:00,2018-01-09 13:21:00+00:00,100.0,False,CAL FIRE Madera-Mariposa-Merced Unit,547.7,80.55000000000001,23.33333333333333,0.0,0.4025,0.0,0.0,0.0,403.55,0.08,13,pass,13.766666666666666,09,fall
2017-09-01,madera,36.94652,-120.90462,Power Fire,48.0,1,110.0,2017-09-20 21:07:00+00:00,2018-01-09 13:23:00+00:00,100.0,False,CAL FIRE Madera-Mariposa-Merced Unit,547.7,80.55000000000001,23.33333333333333,0.0,0.4025,0.0,0.0,0.0,403.03,0.1,8,pass,13.766666666666666,09,fall
2017-09-01,mariposa,37.37397,-119.83556000000002,Peak Fire,680.0,5,127.0,2017-09-03 13:10:00+00:00,2018-01-09 12:51:00+00:00,100.0,True,CAL FIRE Madera-Mariposa-Merced Unit,1092.9083333333333,70.27142857142857,148.57142857142858,0.0,0.7628571428571428,0.16062632891254802,0.0,0.0,404.01,0.15,14,pass,11.485714285714295,09,fall
2017-09-01,mariposa,37.76888,-120.15846,Dexter Fire,10.0,1,110.0,2017-09-20 14:53:00+00:00,2018-01-09 13:23:00+00:00,100.0,False,CAL FIRE Madera-Mariposa-Merced Unit,1092.9083333333333,70.27142857142857,148.57142857142858,0.0,0.7628571428571428,0.16062632891254802,0.0,0.0,403.03,0.1,8,pass,11.485714285714295,09,fall
2017-09-01,san luis obispo,35.31886,-120.50886,Margarita Fire,120.0,3,127.0,2017-09-03 16:59:00+00:00,2018-01-09 12:50:00+00:00,100.0,False,CAL FIRE San Luis Obispo Unit,358.68125,77.73500000000001,31.0,0.0,0.22454545454545455,0.0,0.0,0.0,404.01,0.15,14,pass,14.61,09,fall
2017-09-01,san luis obispo,35.12269000000001,-120.39387,Huasna Fire,245.0,3,110.0,2017-09-20 13:41:00+00:00,2018-01-09 13:23:00+00:00,100.0,True,CAL FIRE San Luis Obispo Unit,358.68125,77.73500000000001,31.0,0.0,0.22454545454545455,0.0,0.0,0.0,403.03,0.1,8,pass,14.61,09,fall
2017-09-01,san luis obispo,35.3024,-120.65279,Poly Fire,105.0,3,104.0,2017-09-26 15:30:00+00:00,2018-01-09 13:26:00+00:00,100.0,False,CAL FIRE San Luis Obispo Unit,358.68125,77.73500000000001,31.0,0.0,0.22454545454545455,0.0,0.0,0.0,402.49,0.17,14,pass,14.61,09,fall
2017-09-01,san luis obispo,35.5956,-120.56068,Linne Fire,74.0,2,104.0,2017-09-26 16:45:00+00:00,2018-01-09 13:26:00+00:00,100.0,False,CAL FIRE San Luis Obispo Unit,358.68125,77.73500000000001,31.0,0.0,0.22454545454545455,0.0,0.0,0.0,402.49,0.17,14,pass,14.61,09,fall
2017-09-01,san luis obispo,35.76343,-121.04445,Cove Fire,25.0,1,107.0,2017-09-23 15:40:00+00:00,2018-01-09 13:23:00+00:00,100.0,False,CAL FIRE San Luis Obispo Unit,358.68125,77.73500000000001,31.0,0.0,0.22454545454545455,0.0,0.0,0.0,403.03,0.15,8,pass,14.61,09,fall
2017-09-01,santa clara,36.99092,-121.59899,Bally Fire,100.0,2,127.0,2017-09-03 19:17:00+00:00,2018-01-09 12:50:00+00:00,100.0,False,CAL FIRE Santa Clara Unit/Gilroy Fire Dept,209.86666666666667,76.02222222222223,37.111111111111114,0.0,0.05000000000000001,0.0,0.0,0.0,404.01,0.15,14,pass,11.511111111111092,09,fall
2017-09-01,fresno,36.09486,-120.52188999999998,Parkfield Fire,100.0,2,128.0,2017-09-03 09:23:00+00:00,2018-01-09 12:51:00+00:00,100.0,False,CAL FIRE Fresno-Kings Unit,755.284,75.6624183006536,103.41176470588236,0.0,0.3315384615384615,0.0,0.0,0.0,404.01,0.15,14,pass,13.430718954248391,09,fall
2017-09-01,fresno,36.24653,-120.31598,Murphy Fire,237.0,3,111.0,2017-09-19 19:47:00+00:00,2018-01-09 13:23:00+00:00,100.0,False,CAL FIRE Fresno-Kings Unit,755.284,75.6624183006536,103.41176470588236,0.0,0.3315384615384615,0.0,0.0,0.0,402.78,0.07,13,pass,13.430718954248391,09,fall
2017-09-01,fresno,37.10067,-119.32108999999998,Shaver Fire,10.0,1,120.0,2017-09-11 10:00:00+00:00,2018-01-09 13:19:00+00:00,100.0,False,CAL FIRE / Fresno County Fire,755.284,75.6624183006536,103.41176470588236,0.0,0.3315384615384615,0.0,0.0,0.0,403.78,0.23,12,pass,13.430718954248391,09,fall
2017-07-01,fresno,35.95910999999999,-120.55579,Park Fire,1649.0,6,175.0,2017-07-17 13:15:00+00:00,2018-01-09 11:58:00+00:00,100.0,True,CAL FIRE / Fresno County Fire,672.225,87.72058823529412,1.6470588235294117,0.0,0.0,0.0,0.0,0.0,407.52,0.14,12,pass,14.735294117647044,07,summer
2017-07-01,fresno,36.269125,-120.620791,Derrick Fire,1538.0,6,190.0,2017-07-02 22:28:00+00:00,2018-01-09 11:41:00+00:00,100.0,True,CAL FIRE / Fresno County Fire,672.225,87.72058823529412,1.6470588235294117,0.0,0.0,0.0,0.0,0.0,406.82,0.04,4,pass,14.735294117647044,07,summer
2017-07-01,fresno,36.95104,-119.65621000000002,Auberry Fire,91.0,2,187.0,2017-07-05 15:40:00+00:00,2018-01-09 11:45:00+00:00,100.0,True,CAL FIRE/Fresno County Fire,672.225,87.72058823529412,1.6470588235294117,0.0,0.0,0.0,0.0,0.0,409.09,0.05,14,pass,14.735294117647044,07,summer
2017-07-01,fresno,36.81476,-119.51592,Freedom Fire,57.0,2,188.0,2017-07-04 13:21:00+00:00,2018-01-09 11:43:00+00:00,100.0,False,CAL FIRE / Fresno County Fire,672.225,87.72058823529412,1.6470588235294117,0.0,0.0,0.0,0.0,0.0,409.34,0.21,12,pass,14.735294117647044,07,summer
2017-07-01,calaveras,38.29113,-120.62177,Maria Fire,117.0,3,175.0,2017-07-17 12:55:00+00:00,2018-01-09 11:58:00+00:00,100.0,True,CAL FIRE Tuolumne-Calaveras Unit,825.7999999999997,77.3,0.0,0.0,0.0,0.0,0.0,0.0,407.52,0.14,12,pass,12.599999999999994,07,summer
2017-07-01,calaveras,38.20176,-120.67848,Gold Fire,22.0,1,187.0,2017-07-05 16:56:00+00:00,2018-01-09 11:44:00+00:00,100.0,False,CAL FIRE Tuolumne-Calaveras Unit,825.7999999999997,77.3,0.0,0.0,0.0,0.0,0.0,0.0,409.09,0.05,14,pass,12.599999999999994,07,summer
2017-07-01,calaveras,38.18303,-120.85322,Quail Fire,59.0,2,180.0,2017-07-12 13:10:00+00:00,2018-01-09 11:53:00+00:00,100.0,True,CAL FIRE Tuolumne-Calaveras Unit,825.7999999999997,77.3,0.0,0.0,0.0,0.0,0.0,0.0,406.74,0.38,10,pass,12.599999999999994,07,summer
2017-07-01,colusa,39.01224000000001,-122.20127,Sand Fire,70.0,2,175.0,2017-07-17 13:17:00+00:00,2018-01-09 11:58:00+00:00,100.0,True,CAL FIRE Sonoma-Lake-Napa Unit,139.20000000000002,89.46666666666667,0.0,0.0,0.0,0.0,0.0,0.0,407.52,0.14,12,pass,17.86666666666669,07,summer
2017-07-01,santa barbara,34.72379,-120.13249,Mesa Fire,50.0,1,175.0,2017-07-17 14:55:00+00:00,2018-01-09 11:59:00+00:00,100.0,False,Santa Barbara County Fire,260.1947368421053,76.34615384615385,20.46153846153846,0.0,0.003846153846153847,0.16062632891254802,0.0,0.0,407.52,0.14,12,pass,11.676923076923089,07,summer
2017-07-01,lake,38.86056,-122.62382,Murphy Fire,40.0,1,175.0,2017-07-17 14:44:00+00:00,2018-01-09 11:59:00+00:00,100.0,False,CAL FIRE Sonoma-Lake-Napa Unit,795.14,84.0,0.8571428571428571,0.0,0.0,0.0,0.0,0.0,407.52,0.14,12,pass,14.199999999999989,07,summer
2017-07-01,modoc,41.45589,-120.56933,Centerville Fire,15.0,1,175.0,2017-07-17 13:38:00+00:00,2018-01-09 11:58:00+00:00,100.0,False,CAL FIRE Lassen-Modoc Unit,1622.2733333333335,77.52499999999998,22.33333333333333,0.0,0.514,0.0,0.0,0.0,407.52,0.14,12,pass,16.31666666666665,07,summer
2017-07-01,modoc,41.72163,-121.30451,Dode Fire,410.0,4,179.0,2017-07-13 15:23:00+00:00,2018-01-09 11:54:00+00:00,100.0,False,Modoc National Forest,1622.2733333333335,77.52499999999998,22.33333333333333,0.0,0.514,0.0,0.0,0.0,406.67,0.18,11,pass,16.31666666666665,07,summer
2017-07-01,modoc,41.338,-120.304,Warner Mountain Lightning,0.0,1,170.0,2017-07-23 00:00:00+00:00,2018-01-09 12:04:00+00:00,100.0,False,Modoc National Forest,1622.2733333333335,77.52499999999998,22.33333333333333,0.0,0.514,0.0,0.0,0.0,407.27,0.3,12,pass,16.31666666666665,07,summer
2017-07-01,butte,39.8629,-121.6268,Desabla Fire,14.0,1,190.0,2017-07-02 13:43:00+00:00,2018-01-09 11:17:00+00:00,100.0,False,CAL FIRE Butte Unit,354.6,88.51249999999999,0.0,0.0,0.0,0.0,0.0,0.0,406.82,0.04,4,pass,14.175000000000011,07,summer
2017-07-01,butte,39.37192,-121.53865,Honcut Fire,166.0,3,182.0,2017-07-10 14:45:00+00:00,2018-01-09 11:52:00+00:00,100.0,False,CAL FIRE / Butte County Fire,354.6,88.51249999999999,0.0,0.0,0.0,0.0,0.0,0.0,407.26,0.16,6,pass,14.175000000000011,07,summer
2017-07-01,butte,39.76243,-121.74121,Humboldt Fire,103.0,3,266.0,2017-07-19 16:02:00+00:00,2018-04-12 14:52:00+00:00,100.0,False,Unified Command: CAL FIRE/Butte County and Chico Fire Department,354.6,88.51249999999999,0.0,0.0,0.0,0.0,0.0,0.0,406.21,0.25,6,pass,14.175000000000011,07,summer
2017-07-01,butte,39.53944,-121.54722,Lakeland Fire,18.0,1,188.0,2017-07-04 15:45:00+00:00,2018-01-09 11:43:00+00:00,100.0,False,CAL FIRE / Butte County Fire,354.6,88.51249999999999,0.0,0.0,0.0,0.0,0.0,0.0,409.34,0.21,12,pass,14.175000000000011,07,summer
2017-07-01,butte,39.50475,-121.33785,Rebie Fire,10.0,1,180.0,2017-07-12 13:55:00+00:00,2018-01-09 11:53:00+00:00,100.0,True,CAL FIRE Butte Unit ,354.6,88.51249999999999,0.0,0.0,0.0,0.0,0.0,0.0,406.74,0.38,10,pass,14.175000000000011,07,summer
2017-07-01,nevada,39.08382,-121.06656,Brewer Fire,10.0,1,190.0,2017-07-02 12:41:00+00:00,2018-01-09 11:16:00+00:00,100.0,False,CAL FIRE Nevada-Yuba-Placer Unit,1050.6470588235297,80.17499999999998,21.625,0.0,0.0071428571428571435,3.2857142857142856,0.0,0.0,406.82,0.04,4,pass,15.075000000000003,07,summer
2017-07-01,nevada,39.16826,-120.95498,Greenhorn Fire,15.0,1,165.0,2017-07-27 14:49:00+00:00,2018-01-09 12:06:00+00:00,100.0,False,CAL FIRE Nevada - Yuba - Placer Unit,1050.6470588235297,80.17499999999998,21.625,0.0,0.0071428571428571435,3.2857142857142856,0.0,0.0,406.88,0.16,11,pass,15.075000000000003,07,summer
2017-07-01,nevada,39.36902,-120.97586,Grizzly Fire,10.0,1,171.0,2017-07-21 16:50:00+00:00,2018-01-09 12:03:00+00:00,100.0,False,CAL FIRE Nevada-Yuba-Placer Unit,1050.6470588235297,80.17499999999998,21.625,0.0,0.0071428571428571435,3.2857142857142856,0.0,0.0,406.78,0.25,14,pass,15.075000000000003,07,summer
2017-06-01,kern,35.53456,-118.66733,Highway Fire,1522.0,6,204.0,2017-06-18 14:22:00+00:00,2018-01-09 10:41:00+00:00,100.0,False,Sequoia National Forest,797.5999999999998,83.975,29.857142857142854,0.0,0.006875,0.0,0.0,0.0,408.72,0.06,7,pass,15.207142857142884,06,summer
2017-06-01,kern,35.59804000000001,-118.47939,Bodfish Fire,206.0,3,212.0,2017-06-10 12:17:00+00:00,2018-01-09 10:29:00+00:00,100.0,False,Kern County Fire Department,797.5999999999998,83.975,29.857142857142854,0.0,0.006875,0.0,0.0,0.0,409.19,0.06,15,pass,15.207142857142884,06,summer
2017-06-01,kern,35.38298,-118.80123,Tarina Fire ,1200.0,6,192.0,2017-06-30 13:49:00+00:00,2018-01-09 11:16:00+00:00,100.0,False,Kern County Fire,797.5999999999998,83.975,29.857142857142854,0.0,0.006875,0.0,0.0,0.0,406.83,0.23,7,pass,15.207142857142884,06,summer
2017-06-01,kern,35.60633,-118.4642,Creek Fire ,33.0,1,218.0,2017-06-04 22:11:00+00:00,2018-01-09 10:24:00+00:00,100.0,False,"Kern County Fire Department, CAL FIRE and Bureau of Land Management",797.5999999999998,83.975,29.857142857142854,0.0,0.006875,0.0,0.0,0.0,409.72,0.08,9,pass,15.207142857142884,06,summer
2017-06-01,kern,35.37351,-118.84134,Breckenridge Fire,35.0,1,214.0,2017-06-09 04:53:00+00:00,2018-01-09 10:29:00+00:00,100.0,False,Kern County Fire Department,797.5999999999998,83.975,29.857142857142854,0.0,0.006875,0.0,0.0,0.0,409.74,0.19,14,pass,15.207142857142884,06,summer
2017-06-01,kern,35.564124,-118.796513,Pine Fire,10.0,1,217.0,2017-06-05 14:02:00+00:00,2018-01-09 10:27:00+00:00,100.0,False,Kern County Fire,797.5999999999998,83.975,29.857142857142854,0.0,0.006875,0.0,0.0,0.0,409.85,0.11,13,pass,15.207142857142884,06,summer
2017-06-01,kern,35.188,-119.2877,Elk Fire,16.0,1,220.0,2017-06-02 18:55:00+00:00,2018-01-09 10:23:00+00:00,100.0,False,Kern County Fire Department,797.5999999999998,83.975,29.857142857142854,0.0,0.006875,0.0,0.0,0.0,409.67,0.06,6,pass,15.207142857142884,06,summer
2017-06-01,madera,37.02081,-119.95136,Road Fire,25.0,1,204.0,2017-06-18 14:04:00+00:00,2018-01-09 10:35:00+00:00,100.0,False,Madera County Fire,547.7230769230771,84.14999999999998,21.66666666666667,0.04,0.141,0.0,0.0,0.0,408.72,0.06,7,pass,15.400000000000006,06,summer
2017-06-01,madera,37.0825,-119.8011,Oakwood Fire,1431.0,6,212.0,2017-06-10 13:19:00+00:00,2018-01-09 10:30:00+00:00,100.0,True,CAL FIRE Madera-Mariposa-Merced Unit,547.7230769230771,84.14999999999998,21.66666666666667,0.04,0.141,0.0,0.0,0.0,409.19,0.06,15,pass,15.400000000000006,06,summer
2017-06-01,madera,37.12759000000001,-120.0193,26 Fire,157.0,3,215.0,2017-06-07 21:00:00+00:00,2018-01-09 10:28:00+00:00,100.0,False,CAL FIRE Madera-Mariposa-Merced Unit,547.7230769230771,84.14999999999998,21.66666666666667,0.04,0.141,0.0,0.0,0.0,409.9,0.18,11,pass,15.400000000000006,06,summer
2017-06-01,san bernardino,34.2976,-116.826,Holcomb Fire,1503.0,6,203.0,2017-06-19 15:05:00+00:00,2018-01-09 11:00:00+00:00,100.0,False,San Bernardino National Forest,960.5,86.86425189393941,20.6875,0.0,0.006,0.0,0.0,0.0,407.78,0.12,12,pass,15.447253787878779,06,summer
2017-06-01,san bernardino,34.14575,-117.17813,Mart Fire,670.0,5,195.0,2017-06-27 15:22:00+00:00,2018-01-09 11:09:00+00:00,100.0,False,USFS - San Bernardino National Forest ,960.5,86.86425189393941,20.6875,0.0,0.006,0.0,0.0,0.0,408.14,0.11,15,pass,15.447253787878779,06,summer
2017-06-01,sierra,39.71101,-120.02325,Evans Fire,168.0,3,203.0,2017-06-19 21:41:00+00:00,2018-01-09 11:00:00+00:00,100.0,False,USFS - Humboldt-Toiyabe National Forest,1763.6999999999996,67.87857142857145,198.85714285714286,0.0,0.42,0.0,0.0,0.0,407.78,0.12,12,pass,15.12857142857144,06,summer
2017-04-01,riverside,34.00566,-117.30693,Opera Fire,1350.0,6,253.0,2017-04-30 15:23:00+00:00,2018-01-09 09:53:00+00:00,100.0,False,CAL FIRE/Riverside County Fire,574.5190476190476,72.68478260869566,102.52173913043478,0.0,0.023529411764705882,0.5,0.0,0.0,410.02,0.08,6,pass,14.004347826086928,04,spring
2017-04-01,riverside,33.7866,-117.5048,Jameson Fire,12.0,1,253.0,2017-04-30 19:43:00+00:00,2018-01-09 09:54:00+00:00,100.0,False,CAL FIRE/Riverside County Fire,574.5190476190476,72.68478260869566,102.52173913043478,0.0,0.023529411764705882,0.5,0.0,0.0,410.02,0.08,6,pass,14.004347826086928,04,spring
2017-04-01,riverside,33.56777,-116.08003,66 Fire,15.0,1,271.0,2017-04-13 02:30:00+00:00,2018-01-09 09:50:00+00:00,100.0,False,CAL FIRE Riverside Unit,574.5190476190476,72.68478260869566,102.52173913043478,0.0,0.023529411764705882,0.5,0.0,0.0,407.84,0.39,10,pass,14.004347826086928,04,spring
2017-04-01,san bernardino,34.30104,-117.45646,Tower Fire,150.0,3,253.0,2017-04-30 16:03:00+00:00,2018-01-09 09:53:00+00:00,100.0,False,USFS - San Bernardino National Forest,963.2911111111113,68.0896551724138,161.10344827586206,0.0,0.021666666666666667,0.0,0.0,0.0,410.02,0.08,6,pass,13.572413793103443,04,spring
2017-08-01,plumas,39.75371,-120.1397,Chilcoot Fire,1020.0,6,155.0,2017-08-06 15:32:00+00:00,2018-01-09 12:20:00+00:00,100.0,False,Tahoe National Forest,1291.11,81.1,1.25,0.0,0.21,0.0,0.0,0.0,406.26,0.16,13,pass,18.549999999999997,08,summer
2017-08-01,plumas,39.9864,-120.89746,Toll Fire,186.0,3,141.0,2017-08-20 16:26:00+00:00,2018-01-09 12:43:00+00:00,100.0,False,Plumas National Forest,1291.11,81.1,1.25,0.0,0.21,0.0,0.0,0.0,404.71,0.07,13,pass,18.549999999999997,08,summer
2017-08-01,yuba,39.1234,-121.32957,Beale Fire,867.0,5,141.0,2017-08-20 14:44:00+00:00,2018-01-09 12:43:00+00:00,100.0,False,Unified Command: CAL FIRE Nevada-Yuba-Placer Unit/Beale Air Force Base,523.3000000000002,83.7,0.0,0.0,0.014000000000000002,0.0,0.0,0.0,404.71,0.07,13,pass,14.0,08,summer
2017-06-01,los angeles,34.55607,-118.60703,Lake Fire,800.0,5,205.0,2017-06-17 13:55:00+00:00,2018-01-09 10:34:00+00:00,100.0,False,Unified Command LA County Fire and USFS,480.2955223880597,78.68375000000002,18.4,0.0,0.010625,0.0,0.0,0.0,408.78,0.14,8,pass,11.552500000000009,06,summer
2017-06-01,los angeles,34.37443,-118.49343,Placerita Fire,760.0,5,197.0,2017-06-25 12:47:00+00:00,2018-01-09 11:08:00+00:00,100.0,False,LA County Fire Department,480.2955223880597,78.68375000000002,18.4,0.0,0.010625,0.0,0.0,0.0,408.69,0.17,10,pass,11.552500000000009,06,summer
2017-06-01,los angeles,34.03941,-118.58624,Topanga Fire,55.0,2,193.0,2017-06-29 15:09:00+00:00,2018-01-09 11:11:00+00:00,100.0,False,Los Angeles County Fire Department,480.2955223880597,78.68375000000002,18.4,0.0,0.010625,0.0,0.0,0.0,406.26,0.35,10,pass,11.552500000000009,06,summer
2017-06-01,los angeles,34.10446,-118.70293999999998,Stokes Fire,41.0,1,193.0,2017-06-29 15:45:00+00:00,2018-01-09 11:11:00+00:00,100.0,False,Los Angeles County Fire Department,480.2955223880597,78.68375000000002,18.4,0.0,0.010625,0.0,0.0,0.0,406.26,0.35,10,pass,11.552500000000009,06,summer
2017-06-01,los angeles,34.29931,-118.37539,5 Fire,25.0,1,219.0,2017-06-03 15:39:00+00:00,2018-01-09 10:24:00+00:00,100.0,False,Los Angeles County Fire Department,480.2955223880597,78.68375000000002,18.4,0.0,0.010625,0.0,0.0,0.0,409.66,0.17,12,pass,11.552500000000009,06,summer
2017-08-01,san luis obispo,35.7908,-120.77485,Yankee Fire,775.0,5,150.0,2017-08-11 16:06:00+00:00,2018-01-09 12:36:00+00:00,100.0,False,CAL FIRE San Luis Obispo/Department of Defense-Camp Roberts ,358.68125,82.17999999999998,6.0,0.0,0.014545454545454544,0.0,0.0,0.0,405.12,0.2,13,pass,15.09999999999998,08,summer
2017-08-01,napa,38.49336,-122.2483,Canyon Fire,114.0,3,150.0,2017-08-11 12:57:00+00:00,2018-01-09 12:35:00+00:00,100.0,True,CAL FIRE Sonoma-Lake-Napa Unit ,130.925,80.48333333333332,1.0,0.0,0.0025,0.0,0.0,0.0,405.12,0.2,13,pass,15.033333333333346,08,summer
2017-08-01,santa clara,37.14653,-121.68165,Tilton Fire,100.0,2,150.0,2017-08-11 14:55:00+00:00,2018-01-09 12:39:00+00:00,100.0,False,CAL FIRE Santa Clara Unit,231.92380952380955,76.86875,6.5,0.0,0.0005555555555555557,0.0,0.0,0.0,405.12,0.2,13,pass,10.037500000000009,08,summer
2017-06-01,san diego,33.1683,-116.77342,Black Fire,36.0,1,197.0,2017-06-25 12:09:00+00:00,2018-01-09 11:07:00+00:00,100.0,False,CAL FIRE San Diego Unit / Cleveland National Forest,367.0,77.0027027027027,26.72972972972973,0.0,0.027,0.0,0.0,0.0,408.69,0.17,10,pass,12.583783783783787,06,summer
2017-06-01,san diego,32.7789,-116.8516,Sloane Fire,25.0,1,196.0,2017-06-27 09:38:00+00:00,2018-01-09 11:09:00+00:00,100.0,False,CAL FIRE San Diego Unit,367.0,77.0027027027027,26.72972972972973,0.0,0.027,0.0,0.0,0.0,408.14,0.11,15,pass,12.583783783783787,06,summer
2017-06-01,san diego,33.43513,-117.58252, Cristianitos Fire,0.0,1,194.0,2017-06-28 17:56:00+00:00,2018-01-09 11:10:00+00:00,100.0,False,Camp Pendleton Marine Corps Base,367.0,77.0027027027027,26.72972972972973,0.0,0.027,0.0,0.0,0.0,408.29,0.21,15,pass,12.583783783783787,06,summer
2017-06-01,san diego,33.23281,-117.29509,Douglas Fire,50.0,1,209.0,2017-06-13 14:31:00+00:00,2018-01-09 10:32:00+00:00,100.0,False,MCI Camp Pendleton,367.0,77.0027027027027,26.72972972972973,0.0,0.027,0.0,0.0,0.0,409.68,0.13,13,pass,12.583783783783787,06,summer
2017-06-01,san diego,0.0,0.0,Dehesa Fire,12.0,1,218.0,2017-06-04 11:04:00+00:00,2018-01-09 10:25:00+00:00,100.0,False,CAL FIRE San Diego Unit,367.0,77.0027027027027,26.72972972972973,0.0,0.027,0.0,0.0,0.0,409.72,0.08,9,pass,12.583783783783787,06,summer
2017-07-01,sierra,39.439722,-120.027222,Farad Fire,747.0,5,182.0,2017-07-10 13:02:00+00:00,2018-01-09 11:51:00+00:00,100.0,False,Humboldt-Toiyabe National Forest,1763.7,76.07857142857145,32.857142857142854,0.0,0.03,0.0,0.0,0.0,407.26,0.16,6,pass,16.75714285714288,07,summer
2017-06-01,marin,37.9775,-122.65749,Pine Fire,38.0,1,196.0,2017-06-27 10:39:00+00:00,2018-01-09 11:09:00+00:00,100.0,False,Marin County Fire Department,130.89999999999998,72.16,69.6,0.0,0.36,0.16062632891254802,0.0,0.0,408.14,0.11,15,pass,12.679999999999993,06,summer
2017-06-01,sacramento,38.45822,-120.92162,Latrobe Fire,35.0,1,196.0,2017-06-27 07:39:00+00:00,2018-01-09 11:09:00+00:00,100.0,False,CAL FIRE Amador-El Dorado Unit,39.93333333333333,83.1,12.0,0.0,0.2641666666666667,0.0,0.0,0.0,408.14,0.11,15,pass,15.533333333333346,06,summer
2017-06-01,sacramento,38.33707,-121.11113,Clay Fire,68.0,2,221.0,2017-06-01 15:38:00+00:00,2018-01-09 10:22:00+00:00,100.0,False,CAL FIRE Amador-El Dorado Unit,39.93333333333333,83.1,12.0,0.0,0.2641666666666667,0.0,0.0,0.0,409.25,0.34,10,pass,15.533333333333346,06,summer
2017-06-01,mariposa,37.3762,-119.9646,Ben Fire,630.0,5,194.0,2017-06-28 15:49:00+00:00,2018-01-09 11:10:00+00:00,100.0,True,CAL FIRE Madera-Mariposa-Merced Unit,1100.5214285714287,72.64375000000001,125.375,0.0,0.4888888888888888,0.16062632891254802,0.0,0.0,408.29,0.21,15,pass,12.562499999999986,06,summer
2017-06-01,modoc,41.85763,-121.29581,Battle Fire,562.0,5,194.0,2017-06-28 13:50:00+00:00,2018-01-09 11:10:00+00:00,100.0,False,Modoc National Forest,1604.28125,66.81363636363635,208.27272727272728,0.15,1.1540000000000001,3.25,0.0,0.0,408.29,0.21,15,pass,13.845454545454537,06,summer
2017-06-01,modoc,41.38247,-120.53443,Jones Fire,42.0,1,219.0,2017-06-03 13:09:00+00:00,2018-01-09 10:24:00+00:00,100.0,False,CAL FIRE Lassen-Modoc Unit,1604.28125,66.81363636363635,208.27272727272728,0.15,1.1540000000000001,3.25,0.0,0.0,409.66,0.17,12,pass,13.845454545454537,06,summer
2017-06-01,monterey,35.947,-120.87492,Alvarado Fire,15.0,1,195.0,2017-06-28 09:30:00+00:00,2018-01-09 11:10:00+00:00,100.0,False,CAL FIRE San Benito-Monterey,159.6809523809524,72.82692307692308,74.38461538461539,0.0,0.11866666666666667,0.0,0.0,0.0,408.29,0.21,15,pass,14.023076923076928,06,summer
2017-06-01,monterey,35.96275,-121.08753,Lockwood Fire,42.0,1,193.0,2017-06-29 20:44:00+00:00,2018-01-09 11:11:00+00:00,100.0,False,CAL FIRE San Benito-Monterey Unit,159.6809523809524,72.82692307692308,74.38461538461539,0.0,0.11866666666666667,0.0,0.0,0.0,406.26,0.35,10,pass,14.023076923076928,06,summer
2017-06-01,monterey,35.80375,-120.52508,Hog Fire,14.0,1,213.0,2017-06-09 16:15:00+00:00,2018-01-09 10:29:00+00:00,100.0,False,CAL FIRE San Benito-Monterey Unit,159.6809523809524,72.82692307692308,74.38461538461539,0.0,0.11866666666666667,0.0,0.0,0.0,409.74,0.19,14,pass,14.023076923076928,06,summer
2017-09-01,santa barbara,34.67403,-120.4393,Rucker Fire,444.0,4,101.0,2017-09-29 14:42:00+00:00,2018-01-09 13:28:00+00:00,100.0,False,Santa Barbara County Fire,262.4368421052631,75.41153846153846,26.615384615384613,0.0,0.3246153846153846,0.16062632891254802,0.0,0.0,403.23,0.19,14,pass,11.53076923076921,09,fall
2017-10-01,el dorado,38.848,-120.287,Table Fire,426.0,4,88.0,2017-10-13 13:16:00+00:00,2018-01-09 13:36:00+00:00,100.0,False,USFS - El Dorado National Forest,1204.3545454545454,59.90416666666667,371.54545454545456,0.15,0.6300000000000002,0.5,0.0,0.0,403.56,0.06,6,pass,12.408333333333331,10,fall
2017-10-01,el dorado,38.77921,-120.46234,Ice Fire,29.0,1,90.0,2017-10-10 15:36:00+00:00,2018-01-09 13:35:00+00:00,100.0,False,USFS - El Dorado National Forest,1204.3545454545454,59.90416666666667,371.54545454545456,0.15,0.6300000000000002,0.5,0.0,0.0,403.28,0.07,9,pass,12.408333333333331,10,fall
2017-10-01,san diego,33.38613,-117.46708999999998,Loma Fire,81.0,2,87.0,2017-10-13 15:40:00+00:00,2018-01-09 13:38:00+00:00,100.0,False,Camp Pendleton - Cleveland National Forest,374.209,74.4554054054054,55.02702702702703,0.0,0.014651162790697675,0.0,0.0,0.0,403.56,0.06,6,pass,13.191891891891885,10,fall
2017-10-01,san diego,33.18716,-116.50897,Wilson Fire,25.0,1,85.0,2017-10-15 14:05:00+00:00,2018-01-09 13:40:00+00:00,100.0,False,CAL FIRE San Diego Unit,374.209,74.4554054054054,55.02702702702703,0.0,0.014651162790697675,0.0,0.0,0.0,404.32,0.1,5,pass,13.191891891891885,10,fall
2017-10-01,san diego,32.64962,-116.37345,Church Fire,100.0,2,80.0,2017-10-21 13:04:00+00:00,2018-01-09 13:41:00+00:00,100.0,False,CAL FIRE San Diego Unit,374.209,74.4554054054054,55.02702702702703,0.0,0.014651162790697675,0.0,0.0,0.0,404.21,0.08,13,pass,13.191891891891885,10,fall
2017-10-01,santa cruz,37.18356,-122.07012,Bear Fire,391.0,4,84.0,2017-10-16 22:30:00+00:00,2018-01-09 13:41:00+00:00,100.0,True,CAL FIRE San Mateo-Santa Cruz Unit ,232.19285714285712,71.91666666666667,105.33333333333331,0.0,0.14272727272727273,0.16062632891254802,0.0,0.0,403.86,0.25,4,pass,16.1,10,fall
2017-04-01,modoc,41.16716,-120.58342,West Fire,380.0,4,280.0,2017-04-03 16:00:00+00:00,2018-01-09 09:40:00+00:00,100.0,False,CAL FIRE Lassen-Modoc Unit,1615.9733333333331,45.3625,732.1666666666665,2.1666666666666665,3.471,15.333333333333336,0.0,0.08333333333333333,407.86,0.18,10,pass,9.874999999999993,04,spring
2017-04-01,shasta,40.48712,-121.85645,Grace Fire,45.0,1,280.0,2017-04-03 16:00:00+00:00,2018-01-09 09:41:00+00:00,100.0,False,CAL FIRE Shasta-Trintiy Unit,555.0892857142858,56.84583333333333,407.5,0.45,6.240000000000001,0.0,0.0,0.0,407.86,0.18,10,pass,10.875,04,spring
2017-11-01,mono,38.46111,-119.48284,Chris Fire,370.0,4,57.0,2017-11-13 11:28:00+00:00,2018-01-09 13:46:00+00:00,100.0,False,Humboldt - Toiyabe National Forest,2340.446666666666,46.517857142857146,721.8571428571429,3.8666666666666663,5.012,11.666666666666664,0.2857142857142857,0.2857142857142857,404.49,0.08,12,pass,11.335714285714289,11,fall
2017-06-01,fresno,36.27306,-120.65185,Creek Fire,357.0,4,199.0,2017-06-23 16:00:00+00:00,2018-01-09 11:01:00+00:00,100.0,False,CAL FIRE / Fresno County Fire,719.3727272727272,79.10333333333334,63.13333333333333,0.0,0.01909090909090909,0.0,0.0,0.0,408.38,0.19,11,pass,14.326666666666682,06,summer
2017-08-01,kern,34.92907,-118.9267,Rose Fire,338.0,4,151.0,2017-08-10 14:32:00+00:00,2018-01-09 12:31:00+00:00,100.0,True,CAL FIRE/Kern County Fire,719.6714285714286,89.04687500000003,0.0,0.0,0.018235294117647058,0.0,0.0,0.0,405.38,0.11,10,pass,14.268749999999997,08,summer
2017-08-01,kern,35.70639,-118.47307,Calgary Fire,50.0,1,156.0,2017-08-05 13:16:00+00:00,2018-01-09 12:19:00+00:00,100.0,False,Kern County Fire Department / Sequoia National Forest,719.6714285714286,89.04687500000003,0.0,0.0,0.018235294117647058,0.0,0.0,0.0,405.94,0.21,10,pass,14.268749999999997,08,summer
2017-08-01,tehama,39.87983,-122.5415,Paskenta Fire ,15.0,1,151.0,2017-08-10 17:24:00+00:00,2018-01-09 12:31:00+00:00,100.0,False,CAL FIRE Tehama-Glenn Unit,292.02857142857135,89.21000000000001,0.0,0.0,0.005,0.16062632891254802,0.0,0.0,405.38,0.11,10,pass,13.019999999999996,08,summer
2017-08-01,tehama,40.29831,-122.70449,Vestal Fire,40.0,1,135.0,2017-08-26 15:03:00+00:00,2018-01-09 12:45:00+00:00,100.0,False,CAL FIRE Tehama-Glenn Unit,292.02857142857135,89.21000000000001,0.0,0.0,0.005,0.16062632891254802,0.0,0.0,404.72,0.1,13,pass,13.019999999999996,08,summer
2017-07-01,del norte,41.478,-123.506,Marble Fire,319.0,4,173.0,2017-07-19 14:00:00+00:00,2018-01-09 12:01:00+00:00,100.0,False,USFS - Six Rivers National Forest,258.6,67.20000000000002,147.0,0.0,0.04,0.0,0.0,0.0,406.21,0.25,6,pass,9.200000000000024,07,summer
2017-07-01,glenn,39.75425,-122.17657,Creek Fire,0.0,1,173.0,2017-07-19 17:30:00+00:00,2018-01-09 12:02:00+00:00,100.0,False,City of Orland Fire Department,671.0200000000002,85.93,0.0,0.0,0.0,0.0,0.0,0.0,406.21,0.25,6,pass,14.059999999999988,07,summer
2017-09-01,alameda,37.63358,-121.49925,Corral Fire,155.0,3,197.0,2017-09-19 14:05:00+00:00,2018-04-05 10:48:00+00:00,100.0,False,Unified Command: Alameda County Fireand CAL FIRE Santa Clara Unit,158.19545454545457,76.05454545454545,31.0,0.0,0.055,0.0,0.0,0.0,402.78,0.07,13,pass,10.72727272727272,09,fall
2017-09-01,alameda,37.77982,-122.169,Edwards Fire,22.0,1,105.0,2017-09-26 12:22:00+00:00,2018-01-09 13:25:00+00:00,100.0,False,Oakland City Fire Department,158.19545454545457,76.05454545454545,31.0,0.0,0.055,0.0,0.0,0.0,402.49,0.17,14,pass,10.72727272727272,09,fall
2017-09-01,mendocino,39.02482,-123.1362,Grape Fire,146.0,3,112.0,2017-09-19 13:02:00+00:00,2018-01-09 13:22:00+00:00,100.0,True,CAL FIRE Mendocino Unit,380.26875,75.56875,70.75,0.0,0.26,0.0,0.0,0.0,402.78,0.07,13,pass,14.587499999999991,09,fall
2017-09-01,tuolumne,37.89677800000001,-120.504134,Table Fire,39.0,1,188.0,2017-09-19 00:22:00+00:00,2018-03-26 10:49:00+00:00,100.0,False,CAL FIRE Tuolumne-Calaveras Unit,1094.1125,73.3125,123.125,0.0,0.96,0.0,0.0,0.0,402.78,0.07,13,pass,13.649999999999991,09,fall
2017-07-01,ventura,34.20599,-118.98603,Grade Fire,50.0,1,188.0,2017-07-04 14:45:00+00:00,2018-01-09 11:43:00+00:00,100.0,False,Ventura County Fire Department,471.81176470588235,79.98636363636363,1.4545454545454546,0.0,0.045,0.0,0.0,0.0,409.34,0.21,12,pass,13.572727272727263,07,summer
2017-07-01,san benito,36.85596,-121.30983,Valley Fire,34.0,1,188.0,2017-07-04 13:21:00+00:00,2018-01-09 11:42:00+00:00,100.0,False,CAL FIRE San Benito-Monterey Unit,383.8666666666666,81.42000000000002,4.8,0.0,0.0,0.16062632891254802,0.0,0.0,409.34,0.21,12,pass,13.799999999999969,07,summer
2017-08-01,alameda,37.72543,-121.90516,Range Fire,200.0,3,139.0,2017-08-22 14:00:00+00:00,2018-01-09 12:44:00+00:00,100.0,False,California National Guard,164.92857142857142,75.15833333333335,22.5,0.0,0.004705882352941177,0.0,0.0,0.0,404.36,0.08,12,pass,10.366666666666674,08,summer
2017-08-01,alameda,37.56181,-121.56425,Mines Fire,44.0,1,134.0,2017-08-27 17:45:00+00:00,2018-01-09 12:45:00+00:00,100.0,False,CAL FIRE Santa Clara Unit,164.92857142857142,75.15833333333335,22.5,0.0,0.004705882352941177,0.0,0.0,0.0,404.66,0.31,12,pass,10.366666666666674,08,summer
2017-08-01,san diego,32.65003,-116.42907,Eclipse Fire,200.0,3,140.0,2017-08-21 14:00:00+00:00,2018-01-09 12:43:00+00:00,100.0,True,CAL FIRE San Diego Unit,372.9288461538462,80.71052631578948,2.2105263157894743,0.0,0.1332222222222222,0.0,0.0,0.0,404.45,0.17,14,pass,11.284210526315789,08,summer
2017-08-01,san diego,33.20988,-116.46989,Montezuma Fire,62.0,2,136.0,2017-08-26 11:30:00+00:00,2018-01-09 12:44:00+00:00,100.0,False,CAL FIRE San Diego Unit,372.9288461538462,80.71052631578948,2.2105263157894743,0.0,0.1332222222222222,0.0,0.0,0.0,404.72,0.1,13,pass,11.284210526315789,08,summer
2017-10-01,kern,35.3091,-118.701,Rolling Fire,184.0,3,169.0,2017-10-15 17:11:00+00:00,2018-04-03 10:46:00+00:00,100.0,False,Kern County Fire,723.7863636363635,71.65666666666667,88.0,0.0,0.011666666666666664,0.0,0.0,0.0,404.32,0.1,5,pass,14.900000000000006,10,fall
2017-10-01,kern,35.19008,-118.76152,Quarry Fire,183.0,3,89.0,2017-10-12 10:42:00+00:00,2018-01-09 13:36:00+00:00,100.0,False,Kern County Fire Department,723.7863636363635,71.65666666666667,88.0,0.0,0.011666666666666664,0.0,0.0,0.0,403.56,0.18,6,pass,14.900000000000006,10,fall
2017-10-01,monterey,36.5858,-121.80377,York Fire,31.0,1,85.0,2017-10-15 14:55:00+00:00,2018-01-09 13:40:00+00:00,100.0,False,CAL FIRE San Benito-Monterey Unit,197.52272727272728,71.39285714285714,114.14285714285714,0.0,0.161875,0.0,0.0,0.0,404.32,0.1,5,pass,15.685714285714297,10,fall
2017-05-01,madera,36.90967,-119.79315,41 Fire,150.0,3,236.0,2017-05-17 15:30:00+00:00,2018-01-09 10:01:00+00:00,100.0,False,Madera County Fire Department,478.9428571428571,73.46666666666667,82.83333333333333,0.0,0.061818181818181835,0.0,0.0,0.0,410.1,0.12,11,pass,13.599999999999994,05,spring
2017-05-01,monterey,36.2771,-120.94328,Lonoak Fire,17.0,1,236.0,2017-05-17 15:18:00+00:00,2018-01-09 09:59:00+00:00,100.0,True,CAL FIRE San Benito Monterey Unit,160.87,67.48076923076923,157.46153846153842,0.0,0.04142857142857143,0.0,0.0,0.0,410.1,0.12,11,pass,12.54615384615385,05,spring
2017-10-01,trinity,40.46836,-123.51619,River Fire,148.0,3,86.0,2017-10-14 16:00:00+00:00,2018-01-09 13:36:00+00:00,100.0,False,Six Rivers National Forest,890.3785714285713,64.75416666666666,268.6666666666667,0.0,1.5950000000000002,0.0,0.0,0.0,403.37,0.18,11,pass,16.17500000000001,10,fall
2017-09-01,el dorado,38.5758,-120.915,French Fire,136.0,3,113.0,2017-09-17 15:18:00+00:00,2018-01-09 13:21:00+00:00,100.0,True,CAL FIRE Amador-El Dorado Unit,1204.3545454545454,66.5064393939394,228.45454545454547,0.08333333333333333,0.8372222222222222,0.6,0.0,0.0,402.87,0.06,9,pass,11.703787878787871,09,fall
