CountyIds,COUNTY,Latitude,Longitude,AdminUnit,Name,AcresBurned,Started,Extinguished,Duration,ArchiveYear,PercentContained,MajorIncident,time
55,tuolumne,37.857,-120.086,Stanislaus National Forest/Yosemite National Park,Rim Fire,257314.0,2013-08-17 15:25:00+00:00,2013-09-06 18:30:00+00:00,20 days 03:05:00,2013,100.0,False,2013-08-17
19,los angeles,34.585595,-118.423176,USFS Angeles National Forest/Los Angeles County/CAL FIRE,Powerhouse Fire,30274.0,2013-05-30 15:28:00+00:00,2013-06-08 18:30:00+00:00,9 days 03:02:00,2013,100.0,False,2013-05-30
33,riverside,33.7095,-116.72885,CAL FIRE Riverside Unit / San Bernardino National Forest,Mountain Fire,27531.0,2013-07-15 13:43:00+00:00,2013-07-30 18:00:00+00:00,15 days 04:17:00,2013,100.0,False,2013-07-15
31,placer,39.12,-120.65,Tahoe National Forest,American Fire,27440.0,2013-08-10 16:30:00+00:00,2013-08-30 08:00:00+00:00,19 days 15:30:00,2013,100.0,False,2013-08-10
56,ventura,0.0,0.0,Ventura County Fire/CAL FIRE,Springs Fire,24251.0,2013-05-02 07:01:00+00:00,2013-05-11 06:30:00+00:00,8 days 23:29:00,2013,100.0,True,2013-05-02
10,fresno,37.279,-119.318,Sierra National Forest,Aspen Fire,22992.0,2013-07-22 22:15:00+00:00,2013-09-24 20:15:00+00:00,63 days 22:00:00,2013,100.0,False,2013-07-22
33,riverside,33.86157,-116.90427,CAL FIRE Riverside Unit / San Bernardino National Forest,Silver Fire,20292.0,2013-08-07 14:05:00+00:00,2013-08-12 18:00:00+00:00,5 days 03:55:00,2013,100.0,True,2013-08-07
47,siskiyou,41.32,-123.176,Klamath National Forest,Salmon River Complex,14754.0,2013-07-31 22:00:00+00:00,2013-08-31 06:45:00+00:00,30 days 08:45:00,2013,100.0,False,2013-07-31
12,humboldt,41.035,-123.488,Six Rivers National Forest,Corral Complex,12503.0,2013-08-10 11:40:00+00:00,2013-08-12 12:00:00+00:00,2 days 00:20:00,2013,100.0,False,2013-08-10
52,tehama,40.04263,-121.85397,CAL FIRE Tehama-Glenn Unit,Deer Fire,11429.0,2013-08-23 14:15:00+00:00,2013-08-29 16:45:00+00:00,6 days 02:30:00,2013,100.0,True,2013-08-23
45,shasta,40.498332,-122.535496,CAL FIRE Shasta-Trinity Unit,Clover Fire,8073.0,2013-09-09 12:32:00+00:00,2013-09-15 07:30:00+00:00,5 days 18:58:00,2013,100.0,True,2013-09-09
37,san diego,32.95435,-116.47381,CAL FIRE San Diego Unit / Cleveland National Forest,Chariot Fire,7055.0,2013-07-06 12:55:00+00:00,2013-07-15 06:15:00+00:00,8 days 17:20:00,2013,100.0,True,2013-07-06
52,tehama,40.190062,-121.595555,CAL FIRE Butte Unit,Panther Fire,6965.0,2013-05-01 09:12:00+00:00,2013-05-09 09:00:00+00:00,7 days 23:48:00,2013,100.0,True,2013-05-01
"15,56",kern,34.7861,-118.9411,CAL FIRE / USFS Los Padres National Forest,Grand Fire,4346.0,2013-05-15 12:50:00+00:00,2013-05-21 19:45:00+00:00,6 days 06:55:00,2013,100.0,True,2013-05-15
"15,56",ventura,34.7861,-118.9411,CAL FIRE / USFS Los Padres National Forest,Grand Fire,4346.0,2013-05-15 12:50:00+00:00,2013-05-21 19:45:00+00:00,6 days 06:55:00,2013,100.0,True,2013-05-15
49,sonoma,38.8167,-122.8498,CAL FIRE Sonoma-Lake-Napa Unit,McCabe Fire,3505.0,2013-11-22 02:04:00+00:00,2013-11-27 18:15:00+00:00,5 days 16:11:00,2013,100.0,True,2013-11-22
33,riverside,34.288877,-116.941311,CAL FIRE/Riverside County Fire ,Summit Fire,3166.0,2013-05-01 12:38:00+00:00,2013-05-04 18:30:00+00:00,3 days 05:52:00,2013,100.0,True,2013-05-01
7,contra costa,37.90757,-121.882582,CAL FIRE Santa-Clara Unit,Morgan Fire,3111.0,2013-09-08 13:08:00+00:00,2013-09-14 17:30:00+00:00,6 days 04:22:00,2013,100.0,True,2013-09-08
37,san diego,33.121109999999994,-116.52579,CAL FIRE San Diego Unit,San Felipe Fire,2781.0,2013-05-23 12:20:00+00:00,2013-05-26 17:45:00+00:00,3 days 05:25:00,2013,100.0,True,2013-05-23
4,butte,39.446268,-121.38236,CAL FIRE Butte Unit,Swedes Fire,2462.0,2013-08-16 16:37:00+00:00,2013-08-22 18:00:00+00:00,6 days 01:23:00,2013,100.0,True,2013-08-16
37,san diego,33.341,-117.3092,Camp Pendleton Marine Corps Base,DeLuz Fire,2236.0,2013-10-05 12:45:00+00:00,2013-10-09 19:00:00+00:00,4 days 06:15:00,2013,100.0,False,2013-10-05
54,tulare,36.208,-118.444,Sequoia National Forest,Fish Fire,2060.0,2013-08-24 14:31:00+00:00,2013-09-24 20:15:00+00:00,31 days 05:44:00,2013,100.0,False,2013-08-24
42,santa barbara,34.55048,-119.82429,USFS Los Padres National Forest,White Fire,1984.0,2013-05-27 14:45:00+00:00,2013-05-30 19:30:00+00:00,3 days 04:45:00,2013,100.0,False,2013-05-27
22,mariposa,37.58202,-119.91071,CAL FIRE Madera-Mariposa-Merced Unit / Sierra National Forest ,Carstens Fire,1708.0,2013-06-16 14:12:00+00:00,2013-06-26 11:15:00+00:00,9 days 21:03:00,2013,100.0,True,2013-06-16
"33,",riverside,33.62236,-117.40288,Cleveland National Forest / CAL FIRE Riverside Unit,Falls Fire,1383.0,2013-08-05 10:10:00+00:00,2013-08-09 18:45:00+00:00,4 days 08:35:00,2013,100.0,False,2013-08-05
37,san diego,33.04458,-116.5209,CAL FIRE San Diego Unit,General Fire,1271.0,2013-05-26 12:04:00+00:00,2013-05-31 06:15:00+00:00,4 days 18:11:00,2013,100.0,True,2013-05-26
55,tuolumne,38.25108,-120.02778,Stanislaus National Forest,Power Fire,1070.0,2013-08-05 06:00:00+00:00,2013-08-14 08:30:00+00:00,9 days 02:30:00,2013,100.0,False,2013-08-05
27,monterey,0.0,0.0,Los Padres National Forest / CAL FIRE San Benito-Monterey Unit,Pfeiffer Fire,917.0,2013-12-16 00:20:00+00:00,2013-12-20 20:00:00+00:00,4 days 19:40:00,2013,100.0,False,2013-12-16
15,kern,35.707,-118.588,Sequoia National Forest,Shirley Fire,794.0,2013-08-18 23:12:00+00:00,2013-08-24 13:45:00+00:00,5 days 14:33:00,2013,100.0,False,2013-08-18
15,kern,34.882,-118.9194,CAL FIRE / Kern County Fire / State Parks / US Forest Service,Rancho Fire,712.0,2013-07-19 12:00:00+00:00,2013-07-22 18:45:00+00:00,3 days 06:45:00,2013,100.0,True,2013-07-19
19,los angeles,34.49149,-118.610044,CAL FIRE/Los Angeles County ,Lake Fire,712.0,2013-05-17 13:23:00+00:00,2013-05-18 19:00:00+00:00,1 days 05:37:00,2013,100.0,False,2013-05-17
15,kern,34.90327,-118.93388,Kern County Fire,Water Fire,612.0,2013-07-23 09:15:00+00:00,2013-07-25 18:30:00+00:00,2 days 09:15:00,2013,100.0,False,2013-07-23
9,el dorado,38.774,-120.298,Eldorado National Forest,Kyburz Fire,572.0,2013-07-08 12:45:00+00:00,2013-07-11 18:30:00+00:00,3 days 05:45:00,2013,100.0,False,2013-07-08
36,san bernardino,34.071556,-117.048397,CAL FIRE San Bernardino Unit/ City of Redlands/San Bernardino Sheriff,Mills Fire,534.0,2013-06-28 14:30:00+00:00,2013-07-01 06:00:00+00:00,2 days 15:30:00,2013,100.0,True,2013-06-28
32,plumas,40.00842,-120.764666,Plumas National Forest,Plumas Lightning Complex (Hough),513.0,2013-08-18 18:30:00+00:00,2013-08-25 13:15:00+00:00,6 days 18:45:00,2013,100.0,False,2013-08-18
33,riverside,33.894055,-116.855019,CAL FIRE/Riverside County Fire,Gorgonio Fire,510.0,2013-05-04 11:43:00+00:00,2013-05-05 18:45:00+00:00,1 days 07:02:00,2013,100.0,False,2013-05-04
25,modoc,41.2415,-121.035,CAL FIRE Lassen-Modoc Unit,Fox Fire (formally 3-7 Fire),502.0,2013-07-03 22:56:00+00:00,2013-07-05 18:30:00+00:00,1 days 19:34:00,2013,100.0,False,2013-07-03
40,san luis obispo,35.15832,-120.05131000000002,Los Padres National Forest,Branch Fire,500.0,2013-06-01 17:27:00+00:00,2013-06-03 18:30:00+00:00,2 days 01:03:00,2013,100.0,False,2013-06-01
7,contra costa,37.96866,-121.91453,CAL FIRE Santa Clara Unit,Kirker Fire,492.0,2013-07-01 13:19:00+00:00,2013-07-01 18:40:00+00:00,0 days 05:21:00,2013,100.0,False,2013-07-01
20,madera,37.015575,-119.78106,CAL FIRE Madera-Mariposa-Merced Unit,Rolling Fire,482.0,2013-06-16 18:17:00+00:00,2013-06-18 19:30:00+00:00,2 days 01:13:00,2013,100.0,True,2013-06-16
36,san bernardino,34.302,-117.598,San Bernardino National Forest,Gobblers Fire,413.0,2013-08-20 13:32:00+00:00,2013-08-20 13:32:00+00:00,0 days 00:00:00,2013,100.0,False,2013-08-20
14,inyo,36.602575,-118.01651,CAL FIRE San Bernardino Unit,River Fire,406.0,2013-02-24 08:16:00+00:00,2013-02-28 20:00:00+00:00,4 days 11:44:00,2013,100.0,True,2013-02-24
28,napa,38.628,-122.289,CAL FIRE Sonoma-Lake-Napa Unit,Putah Fire,376.0,2013-10-03 20:33:00+00:00,2013-10-04 16:55:00+00:00,0 days 20:22:00,2013,100.0,True,2013-10-03
35,san benito,37.160346,-120.937494,CAL FIRE San Benito-Monterey ,Tres Pinos Fire,354.0,2013-05-03 11:42:00+00:00,2013-05-03 18:45:00+00:00,0 days 07:03:00,2013,100.0,False,2013-05-03
33,riverside,0.0,0.0,CAL FIRE / Riverside County Fire,Jurupa Fire,311.0,2013-02-28 16:43:00+00:00,2013-03-02 19:00:00+00:00,2 days 02:17:00,2013,100.0,False,2013-02-28
4,butte,39.439,-121.497,CAL FIRE Butte Unit,Summit Fire,305.0,2013-10-04 17:37:00+00:00,2013-10-05 22:00:00+00:00,1 days 04:23:00,2013,100.0,True,2013-10-04
39,san joaquin,38.04993,-120.90325,CAL FIRE Tuolumne-Calaveras Unit ,Shelton Fire,303.0,2013-05-30 11:20:00+00:00,2013-05-30 13:25:00+00:00,0 days 02:05:00,2013,100.0,False,2013-05-30
4,butte,39.434183,-121.576804,CAL FIRE Butte Unit,Lone Fire,298.0,2013-06-03 13:49:00+00:00,2013-06-03 20:00:00+00:00,0 days 06:11:00,2013,100.0,True,2013-06-03
17,lake,0.0,0.0,CAL FIRE Sonoma-Lake-Napa Unit,Becks Fire,296.0,2013-01-22 11:08:00+00:00,2013-01-23 10:15:00+00:00,0 days 23:07:00,2013,100.0,False,2013-01-22
7,contra costa,39.90465,-121.74367,CAL FIRE Santa Clara Unit,Concord Fire,274.0,2013-07-01 15:41:00+00:00,2013-07-01 18:30:00+00:00,0 days 02:49:00,2013,100.0,False,2013-07-01
20,madera,37.116295,-119.635004,CAL FIRE Madera-Mariposa-Merced Unit,Gold Fire,274.0,2013-04-30 12:59:00+00:00,2013-05-01 07:00:00+00:00,0 days 18:01:00,2013,100.0,False,2013-04-30
19,los angeles,34.149,-117.908,Angeles National Forest/Los Angeles County Fire,Madre Fire,268.0,2013-09-23 18:00:00+00:00,2013-09-28 08:00:00+00:00,4 days 14:00:00,2013,100.0,False,2013-09-23
37,san diego,32.710918,-116.746023,CAL FIRE San Diego Unit / Cleveland National Forest,Lyon Fire,263.0,2013-09-09 13:09:00+00:00,2013-09-12 18:15:00+00:00,3 days 05:06:00,2013,100.0,True,2013-09-09
36,san bernardino,34.35,-117.62,Angeles National Forest,Sharp Fire,243.0,2013-08-08 12:15:00+00:00,2013-08-13 23:45:00+00:00,5 days 11:30:00,2013,100.0,False,2013-08-08
1,alameda,37.775057,-121.73721299999998,CAL FIRE Santa Clara Unit,Vasco Fire,240.0,2013-06-08 10:16:00+00:00,2013-06-08 13:25:00+00:00,0 days 03:09:00,2013,100.0,False,2013-06-08
31,placer,38.729297,-121.380862,CAL FIRE/Placer County Fire,PFE Fire,237.0,2013-06-13 11:28:00+00:00,2013-06-13 14:15:00+00:00,0 days 02:47:00,2013,100.0,False,2013-06-13
11,glenn,0.0,0.0,Mendocino National Forest,Daves Fire,226.0,2013-06-12 15:17:00+00:00,2013-06-17 09:00:00+00:00,4 days 17:43:00,2013,100.0,False,2013-06-12
11,glenn,39.514139,-122.560862,CAL FIRE Tehama-Glenn Unit,306 Fire,217.0,2013-05-01 19:00:00+00:00,2013-05-05 18:00:00+00:00,3 days 23:00:00,2013,100.0,True,2013-05-01
27,monterey,0.0,0.0,Los Padres National Forest,Tassajara Fire,213.0,2013-07-17 13:23:00+00:00,2013-07-17 19:30:00+00:00,0 days 06:07:00,2013,100.0,False,2013-07-17
36,san bernardino,34.2,-117.417,San Bernardino National Forest/CAL FIRE San Bernardino Unit,Sierra Fire,200.0,2013-09-24 15:51:00+00:00,2013-09-30 08:30:00+00:00,5 days 16:39:00,2013,100.0,False,2013-09-24
52,tehama,40.012398,-122.079871,CAL FIRE Tehama-Glenn Unit,Vina Fire,200.0,2013-07-04 07:30:00+00:00,2013-07-04 10:30:00+00:00,0 days 03:00:00,2013,100.0,False,2013-07-04
45,shasta,40.5445,-121.3754,CAL FIRE Shasta Unit ,Burney Lightning Series (Warner Fire),196.0,2013-08-19 17:48:00+00:00,2013-08-23 19:15:00+00:00,4 days 01:27:00,2013,100.0,True,2013-08-19
52,tehama,39.961309,-122.330879,CAL FIRE Tehama-Glenn Unit,Paskenta Fire,195.0,2013-07-19 13:32:00+00:00,2013-07-19 15:00:00+00:00,0 days 01:28:00,2013,100.0,False,2013-07-19
28,napa,38.382,-122.311,CAL FIRE Sonoma-Lake-Napa Unit,Silverado Fire,190.0,2013-11-21 21:39:00+00:00,2013-11-23 18:30:00+00:00,1 days 20:51:00,2013,100.0,True,2013-11-21
42,santa barbara,34.611824,-120.074655,Santa Barbara County Fire,Olive Fire,170.0,2013-05-28 15:24:00+00:00,2013-05-29 10:30:00+00:00,0 days 19:06:00,2013,100.0,False,2013-05-28
57,yolo,38.67479,-122.08725,CAL FIRE Sonoma-Lake-Napa Unit,Capay Fire,163.0,2013-11-04 11:41:00+00:00,2013-11-04 15:35:00+00:00,0 days 03:54:00,2013,100.0,False,2013-11-04
"9,34",el dorado,38.63987,-121.08438,CAL FIRE / Sacramento Metropolitan Fire,50 Fire,163.0,2013-07-19 14:12:00+00:00,2013-07-19 17:15:00+00:00,0 days 03:03:00,2013,100.0,False,2013-07-19
"9,34",sacramento,38.63987,-121.08438,CAL FIRE / Sacramento Metropolitan Fire,50 Fire,163.0,2013-07-19 14:12:00+00:00,2013-07-19 17:15:00+00:00,0 days 03:03:00,2013,100.0,False,2013-07-19
49,sonoma,38.34599,-122.6503,CAL FIRE Sonoma-Lake-Napa Unit,Crane Fire,159.0,2013-10-04 12:25:00+00:00,2013-10-05 07:45:00+00:00,0 days 19:20:00,2013,100.0,False,2013-10-04
49,sonoma,38.17693,-122.51253,CAL FIRE Sonoma-Lake-Napa Unit,Lakeville Fire,158.0,2013-07-26 13:45:00+00:00,2013-07-26 17:45:00+00:00,0 days 04:00:00,2013,100.0,False,2013-07-26
1,alameda,0.0,0.0,CAL FIRE Santa Clara Unit,Highland Fire,150.0,2013-10-04 07:35:00+00:00,2013-10-04 10:30:00+00:00,0 days 02:55:00,2013,100.0,False,2013-10-04
33,riverside,33.99012800000001,-117.164997,CAL FIRE / Riverside County Fire,Redlands Fire,150.0,2013-07-16 17:48:00+00:00,2013-07-17 07:45:00+00:00,0 days 13:57:00,2013,100.0,False,2013-07-16
50,stanislaus,37.436,-121.1955,CAL FIRE Santa Clara Unit,Diablo Fire,150.0,2013-07-12 15:35:00+00:00,2013-07-13 21:45:00+00:00,1 days 06:10:00,2013,100.0,False,2013-07-12
10,fresno,36.7218,-119.2248,CAL FIRE/Fresno County Fire,George Fire,150.0,2013-06-25 13:36:00+00:00,2013-06-25 17:15:00+00:00,0 days 03:39:00,2013,100.0,False,2013-06-25
4,butte,0.0,0.0,CAL FIRE Butte Unit,Neal Fire,150.0,2013-05-22 00:56:00+00:00,2013-05-22 09:30:00+00:00,0 days 08:34:00,2013,100.0,True,2013-05-22
19,los angeles,34.419284000000005,-118.58688,Los Angeles County Fire Department,Magic Fire,149.0,2013-05-28 11:30:00+00:00,2013-05-29 15:30:00+00:00,1 days 04:00:00,2013,100.0,False,2013-05-28
54,tulare,36.258,-118.459,Sequoia National Forest,Angora Fire,134.0,2013-09-08 11:53:00+00:00,2013-09-24 20:15:00+00:00,16 days 08:22:00,2013,100.0,False,2013-09-08
49,sonoma,38.638828,-122.655616,CAL FIRE Sonoma-Lake-Napa Unit,Yellow Fire,125.0,2013-05-01 02:01:00+00:00,2013-05-03 06:15:00+00:00,2 days 04:14:00,2013,100.0,True,2013-05-01
48,solano,38.08744,-122.13802,CAL FIRE Sanoma-Lake-Napa Unit,California Fire,124.0,2013-06-18 15:18:00+00:00,2013-06-18 22:30:00+00:00,0 days 07:12:00,2013,100.0,False,2013-06-18
24,merced,37.03776,-121.006939,CAL FIRE Madera-Mariposa-Merced Unit,152 Fire,124.0,2013-06-04 15:42:00+00:00,2013-06-05 08:30:00+00:00,0 days 16:48:00,2013,100.0,False,2013-06-04
33,riverside,33.963591,-117.187934,CAL FIRE/Riverside County Fire,Smiley Fire,124.0,2013-05-25 14:59:00+00:00,2013-05-25 23:00:00+00:00,0 days 08:01:00,2013,100.0,False,2013-05-25
17,lake,38.88221400000001,-122.567525,CAL FIRE Sonoma-Lake-Napa Unit,Cantwell Fire,120.0,2013-11-08 13:42:00+00:00,2013-11-10 18:30:00+00:00,2 days 04:48:00,2013,100.0,True,2013-11-08
9,el dorado,38.682378,-120.839075,CAL FIRE Amador-El Dorado Unit,Union Fire,116.0,2013-08-16 13:55:00+00:00,2013-08-16 17:55:00+00:00,0 days 04:00:00,2013,100.0,True,2013-08-16
36,san bernardino,34.287,-117.451,San Bernardino National Forest,Cleghorn Fire,110.0,2013-08-17 17:25:00+00:00,2013-08-18 20:55:00+00:00,1 days 03:30:00,2013,100.0,False,2013-08-17
10,fresno,36.772425,-119.62838899999998,CAL FIRE/Fresno County Fire,Clinton Fire,108.0,2013-06-13 11:54:00+00:00,2013-06-13 21:30:00+00:00,0 days 09:36:00,2013,100.0,False,2013-06-13
27,monterey,36.1531,-120.8973,CAL FIRE San Benito-Monterey Unit ,Freeman Fire,105.0,2013-06-29 14:09:00+00:00,2013-06-29 18:30:00+00:00,0 days 04:21:00,2013,100.0,False,2013-06-29
19,los angeles,0.0,0.0,Angeles National Forest / Los Angeles County Fire Department,Bee Fire,100.0,2013-08-09 17:15:00+00:00,2013-08-11 19:15:00+00:00,2 days 02:00:00,2013,100.0,False,2013-08-09
55,tuolumne,37.91529,-120.33313,CAL FIRE Tuolumne-Calaveras Unit,Murphy Fire,100.0,2013-06-02 13:30:00+00:00,2013-06-02 16:55:00+00:00,0 days 03:25:00,2013,100.0,False,2013-06-02
37,san diego,32.56446500000001,-116.900368,CAL FIRE San Diego Unit,Border Fire,100.0,2013-05-22 16:14:00+00:00,2013-05-23 08:30:00+00:00,0 days 16:16:00,2013,100.0,False,2013-05-22
23,mendocino,38.9252,-122.966,CAL FIRE Mendocino Unit,Highland Fire,98.0,2013-09-28 13:57:00+00:00,2013-09-29 18:15:00+00:00,1 days 04:18:00,2013,100.0,False,2013-09-28
25,modoc,41.73325,-120.375,Modoc National Forest ,Davis Creek Complex,97.0,2013-09-05 15:57:00+00:00,2013-09-24 20:15:00+00:00,19 days 04:18:00,2013,100.0,False,2013-09-05
36,san bernardino,33.642,-116.706,San Bernardino National Forest,Little Fire,97.0,2013-08-24 15:09:00+00:00,2013-08-30 08:00:00+00:00,5 days 16:51:00,2013,100.0,False,2013-08-24
18,lassen,40.88886,-120.958126,CAL FIRE Lassen-Modoc Unit,Coyote Fire,97.0,2013-08-09 15:51:00+00:00,2013-08-12 09:30:00+00:00,2 days 17:39:00,2013,100.0,False,2013-08-09
3,amador,38.27783,-120.966016,CAL FIRE Amador-El Dorado Unit,Roadrunner Fire,96.0,2013-06-12 16:43:00+00:00,2013-06-13 09:45:00+00:00,0 days 17:02:00,2013,100.0,False,2013-06-12
40,san luis obispo,35.4393,-120.8358,CAL FIRE San Luis Obispo Unit,Creek Fire,94.0,2013-09-24 03:20:00+00:00,2013-09-24 17:30:00+00:00,0 days 14:10:00,2013,100.0,False,2013-09-24
4,butte,39.6612,-121.50354,CAL FIRE Butte Unit,Branch Fire,92.0,2013-08-01 16:01:00+00:00,2013-08-04 14:45:00+00:00,2 days 22:44:00,2013,100.0,True,2013-08-01
20,madera,37.1927,-119.7917,CAL FIRE Madera-Mariposa-Merced Unit,Lilly 2 Fire,91.0,2013-05-19 15:07:00+00:00,2013-05-20 19:10:00+00:00,1 days 04:03:00,2013,100.0,True,2013-05-19
33,riverside,33.9582,-116.6534,CAL FIRE/Riverside County Fire ,Water Fire,90.0,2013-05-21 14:16:00+00:00,2013-05-21 19:30:00+00:00,0 days 05:14:00,2013,100.0,False,2013-05-21
40,san luis obispo,35.62743,-120.83417,CAL FIRE San Luis Obispo,Adelaida Fire,85.0,2013-07-07 13:16:00+00:00,2013-07-07 22:00:00+00:00,0 days 08:44:00,2013,100.0,False,2013-07-07
23,mendocino,39.0442,-123.1478,CAL FIRE Mendocino Unit,Retek Fire,82.0,2013-11-22 10:06:00+00:00,2013-11-22 17:30:00+00:00,0 days 07:24:00,2013,100.0,False,2013-11-22
4,butte,39.731878,-121.71393799999998,CAL FIRE Butte Unit,Centerville Fire,80.0,2013-08-31 17:23:00+00:00,2013-09-01 18:00:00+00:00,1 days 00:37:00,2013,100.0,True,2013-08-31
10,fresno,0.0,0.0,CAL FIRE / Fresno County Fire,Butte Fire,80.0,2013-04-09 12:35:00+00:00,2013-04-09 15:30:00+00:00,0 days 02:55:00,2013,100.0,False,2013-04-09
52,tehama,0.0,0.0,CAL FIRE Tehama-Glenn Unit,Tehama Fire,75.0,2013-09-15 17:39:00+00:00,2013-09-15 19:00:00+00:00,0 days 01:21:00,2013,100.0,False,2013-09-15
36,san bernardino,34.316,-117.352,San Bernardino County Fire,Silverwood Fire,75.0,2013-07-25 15:09:00+00:00,2013-07-26 18:15:00+00:00,1 days 03:06:00,2013,100.0,False,2013-07-25
20,madera,37.169379,-119.75636000000002,CAL FIRE Madera-Mariposa-Merced Unit,Revis Fire,75.0,2013-06-12 16:40:00+00:00,2013-06-14 16:30:00+00:00,1 days 23:50:00,2013,100.0,True,2013-06-12
36,san bernardino,34.1834,-117.4408,"USFS San Bernardino National Forest, CAL FIRE San Bernardino Unit",Lytle Fire,75.0,2013-05-13 13:30:00+00:00,2013-05-15 08:15:00+00:00,1 days 18:45:00,2013,100.0,True,2013-05-13
28,napa,38.441792,-122.350844,CAL FIRE Sonoma-Lake-Napa Unit,Silverado Fire,75.0,2013-04-30 23:44:00+00:00,2013-05-01 17:15:00+00:00,0 days 17:31:00,2013,100.0,False,2013-04-30
36,san bernardino,34.003151,-117.106075,CAL FIRE San Bernardino Unit,Liveoak Fire,73.0,2013-09-11 16:57:00+00:00,2013-09-12 08:45:00+00:00,0 days 15:48:00,2013,100.0,False,2013-09-11
58,yuba,39.206,-121.31634,CAL FIRE Nevada-Placer-Yuba Unit,McGanney Fire,73.0,2013-07-08 09:59:00+00:00,2013-07-08 17:30:00+00:00,0 days 07:31:00,2013,100.0,False,2013-07-08
4,butte,0.0,0.0,CAL FIRE Butte Unit,Cedar Fire,72.0,2013-05-01 04:16:00+00:00,2013-05-04 19:00:00+00:00,3 days 14:44:00,2013,100.0,True,2013-05-01
17,lake,39.013682,-122.491894,CAL FIRE Sonoma-Lake-Napa Unit,Double Fire,70.0,2013-08-16 17:57:00+00:00,2013-08-18 18:30:00+00:00,2 days 00:33:00,2013,100.0,True,2013-08-16
25,modoc,41.569,-120.959,Modoc National Forest,Rail Fire,68.0,2013-09-07 17:30:00+00:00,2013-09-05 21:00:00+00:00,-2 days +03:30:00,2013,100.0,False,2013-09-07
56,ventura,34.384,-119.13249,Ventura County Fire Department,Wheeler Fire,64.0,2013-11-14 11:05:00+00:00,2013-11-15 16:00:00+00:00,1 days 04:55:00,2013,100.0,False,2013-11-14
33,riverside,38.838,-116.61,San Bernardino National Forest,Tram Fire,60.0,2013-08-06 13:39:00+00:00,2013-08-08 09:00:00+00:00,1 days 19:21:00,2013,100.0,False,2013-08-06
33,riverside,33.910270000000004,-116.99895,CAL FIRE/Riverside County  Fire,Relay Fire,60.0,2013-08-04 16:29:00+00:00,2013-08-04 18:00:00+00:00,0 days 01:31:00,2013,100.0,False,2013-08-04
29,nevada,39.333401,-121.107022,CAL FIRE Nevada-Yuba-Placer Unit,Tyler Fire,52.0,2013-08-31 14:42:00+00:00,2013-08-31 21:30:00+00:00,0 days 06:48:00,2013,100.0,False,2013-08-31
40,san luis obispo,35.45797800000001,-120.751555,CAL FIRE San Luis Obispo Unit,Toro Fire,51.0,2013-11-08 10:30:00+00:00,2013-11-09 17:00:00+00:00,1 days 06:30:00,2013,100.0,True,2013-11-08
17,lake,39.0448,-122.7656,CAL FIRE Sonoma-Lake-Napa Unit,Bruner Fire,50.0,2013-11-23 12:04:00+00:00,2013-11-24 08:45:00+00:00,0 days 20:41:00,2013,100.0,False,2013-11-23
47,siskiyou,41.923323,-122.578393,CAL FIRE Siskiyou Unit,Cottonwood Fire,50.0,2013-08-15 14:40:00+00:00,2013-08-15 17:00:00+00:00,0 days 02:20:00,2013,100.0,False,2013-08-15
43,santa clara,37.1438,-121.7804,CAL FIRE Santa Clara Unit,Uvas Fire,50.0,2013-07-12 13:09:00+00:00,2013-07-12 17:45:00+00:00,0 days 04:36:00,2013,100.0,False,2013-07-12
1,alameda,37.7393,-121.5869,CAL FIRE Santa Clara Unit,Grant Fire,50.0,2013-07-04 10:00:00+00:00,2013-07-04 11:30:00+00:00,0 days 01:30:00,2013,100.0,False,2013-07-04
40,san luis obispo,35.5123,-120.6368,CAL FIRE San Luis Obispo Unit,Homestead Fire,50.0,2013-05-25 17:35:00+00:00,2013-05-25 18:45:00+00:00,0 days 01:10:00,2013,100.0,False,2013-05-25
5,calaveras,38.06231,-120.45233,CAL FIRE Tuolumne-Calaveras Unit,Bridges Fire,46.0,2013-08-17 10:11:00+00:00,2013-08-19 07:10:00+00:00,1 days 20:59:00,2013,100.0,True,2013-08-17
10,fresno,37.03087,-119.463757,CAL FIRE/Fresno County Fire,Sierra Fire,46.0,2013-06-17 14:41:00+00:00,2013-06-19 08:45:00+00:00,1 days 18:04:00,2013,100.0,False,2013-06-17
23,mendocino,38.980846,-123.067671,CAL FIRE Mendocino Unit,Pratt Fire,45.0,2013-07-23 13:29:00+00:00,2013-07-23 16:00:00+00:00,0 days 02:31:00,2013,100.0,False,2013-07-23
56,ventura,0.0,0.0,Ventura County Fire Department,Happy Camp Fire,44.0,2013-12-10 02:26:00+00:00,2013-12-11 17:30:00+00:00,1 days 15:04:00,2013,100.0,False,2013-12-10
45,shasta,40.37300000000001,-122.7338,CAL FIRE Shasta-Trinity Unit,Fiddler Fire,43.0,2013-07-09 11:59:00+00:00,2013-07-09 15:00:00+00:00,0 days 03:01:00,2013,100.0,False,2013-07-09
33,riverside,33.969359999999995,-117.1265,CAL FIRE/Riverside County Fire,Viper Fire,42.0,2013-06-08 15:37:00+00:00,2013-06-08 19:00:00+00:00,0 days 03:23:00,2013,100.0,False,2013-06-08
41,san mateo,37.667295,-122.427285,CAL FIRE San Mateo-Santa Cruz Unit,Chestnut Fire,41.0,2013-09-07 13:55:00+00:00,2013-09-07 20:00:00+00:00,0 days 06:05:00,2013,100.0,False,2013-09-07
43,santa clara,37.342186,-121.717706,CAL FIRE Santa Clara Unit,Grant Fire,40.0,2013-12-31 05:30:00+00:00,2013-12-31 16:00:00+00:00,0 days 10:30:00,2013,100.0,False,2013-12-31
30,orange,33.7655,-117.6649,Orange County Fire Authority,Baker Fire,40.0,2013-10-06 10:52:00+00:00,2013-10-09 08:00:00+00:00,2 days 21:08:00,2013,100.0,False,2013-10-06
37,san diego,0.0,0.0,CAL FIRE San Diego Unit,Valley Fire,40.0,2013-09-26 17:29:00+00:00,2013-09-28 09:15:00+00:00,1 days 15:46:00,2013,100.0,False,2013-09-26
33,riverside,33.570291,-116.10815,CAL FIRE/Riverside County Fire,Pierce Fire,40.0,2013-08-16 13:31:00+00:00,2013-08-16 21:00:00+00:00,0 days 07:29:00,2013,100.0,False,2013-08-16
47,siskiyou,0.0,0.0,CAL FIRE Siskiyou Unit,Trout Fire,40.0,2013-07-31 15:25:00+00:00,2013-07-31 19:25:00+00:00,0 days 04:00:00,2013,100.0,False,2013-07-31
33,riverside,33.9634,-117.2508,CAL FIRE / Riverside County Fire,Heacock Fire,40.0,2013-07-19 16:21:00+00:00,2013-07-20 19:30:00+00:00,1 days 03:09:00,2013,100.0,False,2013-07-19
33,riverside,34.001745,-117.302057,CAL FIRE/Riverside County Fire,Palmyrita Fire,40.0,2013-06-14 13:47:00+00:00,2013-06-15 08:00:00+00:00,0 days 18:13:00,2013,100.0,False,2013-06-14
33,riverside,33.655638,-116.161201,CAL FIRE Riverside Unit,54 Fire,40.0,2013-05-16 13:48:00+00:00,2013-05-17 08:30:00+00:00,0 days 18:42:00,2013,100.0,True,2013-05-16
9,el dorado,38.89555,-120.84716,CAL FIRE Amador-El Dorado Unit,Empire Fire,38.0,2013-08-24 14:54:00+00:00,2013-08-24 11:45:00+00:00,-1 days +20:51:00,2013,100.0,False,2013-08-24
17,lake,39.1591,-122.5906,CAL FIRE Sanoma-Lake-Napa Unit,Indian Fire,38.0,2013-08-07 12:35:00+00:00,2013-08-07 18:30:00+00:00,0 days 05:55:00,2013,100.0,False,2013-08-07
1,alameda,37.74241,-121.86216,CAL FIRE Santa Clara Unit / Alameda County Fire,Fallon Fire,38.0,2013-07-06 13:09:00+00:00,2013-07-06 14:30:00+00:00,0 days 01:21:00,2013,100.0,False,2013-07-06
10,fresno,36.763367,-119.558244,CAL FIRE/Fresno County Fire,Michelle Fire,35.0,2013-06-13 15:54:00+00:00,2013-06-13 21:30:00+00:00,0 days 05:36:00,2013,100.0,False,2013-06-13
40,san luis obispo,35.49864,-120.91375,CAL FIRE San Luis Obispo Unit,Cottontail Fire,35.0,2013-05-20 15:45:00+00:00,2013-05-20 19:10:00+00:00,0 days 03:25:00,2013,100.0,False,2013-05-20
45,shasta,0.0,0.0,CAL FIRE Shasta-Trinity Unit,Honey Fire,34.0,2013-08-04 18:00:00+00:00,2013-08-05 08:17:00+00:00,0 days 14:17:00,2013,100.0,False,2013-08-04
45,shasta,40.483662,-122.140914,CAL FIRE Shasta-Trinity Unit,Dersch Fire,33.0,2013-11-07 16:10:00+00:00,2013-11-07 19:45:00+00:00,0 days 03:35:00,2013,100.0,False,2013-11-07
5,calaveras,37.965364,-120.696362,CAL FIRE Tuolumne-Calaveras Unit,Chuckwagon Fire,31.0,2013-07-22 12:34:00+00:00,2013-07-23 15:10:00+00:00,1 days 02:36:00,2013,100.0,False,2013-07-22
17,lake,38.9777,-122.683,CAL FIRE Sonoma-Lake-Napa Unit,Lakeshore Fire,30.0,2013-09-15 19:45:00+00:00,2013-09-15 17:14:00+00:00,-1 days +21:29:00,2013,100.0,True,2013-09-15
17,lake,38.99233,-122.703193,CAL FIRE Sonoma-Lake-Napa Unit,Lake Fire,30.0,2013-06-05 16:05:00+00:00,2013-06-06 07:00:00+00:00,0 days 14:55:00,2013,100.0,False,2013-06-05
36,san bernardino,34.288877,-116.941311,San Bernardino National Forest,Fawnskin Fire,30.0,2013-04-20 17:30:00+00:00,2013-04-22 09:00:00+00:00,1 days 15:30:00,2013,100.0,False,2013-04-20
"49,48,17,6",sonoma,38.4229,-122.0437,CAL FIRE Sonoma-Lake-Napa Unit,Sonoma-Lake-Napa Unit Lightning Fires,28.0,2013-06-10 00:46:00+00:00,2013-06-14 15:45:00+00:00,4 days 14:59:00,2013,100.0,True,2013-06-10
"49,48,17,6",solano,38.4229,-122.0437,CAL FIRE Sonoma-Lake-Napa Unit,Sonoma-Lake-Napa Unit Lightning Fires,28.0,2013-06-10 00:46:00+00:00,2013-06-14 15:45:00+00:00,4 days 14:59:00,2013,100.0,True,2013-06-10
"49,48,17,6",lake,38.4229,-122.0437,CAL FIRE Sonoma-Lake-Napa Unit,Sonoma-Lake-Napa Unit Lightning Fires,28.0,2013-06-10 00:46:00+00:00,2013-06-14 15:45:00+00:00,4 days 14:59:00,2013,100.0,True,2013-06-10
"49,48,17,6",colusa,38.4229,-122.0437,CAL FIRE Sonoma-Lake-Napa Unit,Sonoma-Lake-Napa Unit Lightning Fires,28.0,2013-06-10 00:46:00+00:00,2013-06-14 15:45:00+00:00,4 days 14:59:00,2013,100.0,True,2013-06-10
45,shasta,40.473356,-122.48259,CAL FIRE Shasta-Trinity Unit,Cloverdale Fire,27.0,2013-08-14 15:37:00+00:00,2013-08-14 20:35:00+00:00,0 days 04:58:00,2013,100.0,False,2013-08-14
37,san diego,32.612773,-116.707335,CAL FIRE San Diego Unit,Flume Fire,25.0,2013-07-28 09:43:00+00:00,2013-07-28 17:50:00+00:00,0 days 08:07:00,2013,100.0,False,2013-07-28
17,lake,38.98058,-122.81796,CAL FIRE Sanoma-Lake-Napa Unit,Mount Fire,25.0,2013-06-20 14:29:00+00:00,2013-06-20 13:15:00+00:00,-1 days +22:46:00,2013,100.0,False,2013-06-20
33,riverside,33.96201,-116.90721299999998,CAL FIRE Riverside Unit,Cherry Fire,25.0,2013-05-20 13:47:00+00:00,2013-05-20 18:50:00+00:00,0 days 05:03:00,2013,100.0,False,2013-05-20
17,lake,38.9289,-122.5818,CAL FIRE Sonoma-Lake-Napa Unit,Dam Fire,23.0,2013-11-23 14:17:00+00:00,2013-11-24 18:45:00+00:00,1 days 04:28:00,2013,100.0,False,2013-11-23
23,mendocino,0.0,0.0,CAL FIRE Mendocino Unit,Refuse Fire,15.0,2013-12-30 11:00:00+00:00,2013-12-30 20:30:00+00:00,0 days 09:30:00,2013,100.0,False,2013-12-30
33,riverside,33.94528,-117.09306,CAL FIRE / Riverside County Fire,Gilman Fire,15.0,2013-07-19 17:31:00+00:00,2013-07-19 19:30:00+00:00,0 days 01:59:00,2013,100.0,False,2013-07-19
20,madera,0.0,0.0,CAL FIRE Madera-Mariposa-Merced Unit,Ranger Fire,15.0,2013-05-12 13:02:00+00:00,2013-05-13 09:00:00+00:00,0 days 19:58:00,2013,100.0,False,2013-05-12
12,humboldt,41.333,-123.376,Six Rivers National Forest,Orleans Complex,0.0,2013-08-03 08:00:00+00:00,2013-08-03 15:00:00+00:00,0 days 07:00:00,2013,100.0,False,2013-08-03
33,riverside,33.99647,-116.84137,USFS San Bernardino National Forest,Hathaway Fire,0.0,2013-06-09 12:30:00+00:00,2013-06-09 16:45:00+00:00,0 days 04:15:00,2013,100.0,False,2013-06-09
9,el dorado,38.805437,-120.629714,CAL FIRE / USFS - El Dorado National Forest,King Fire,97717.0,2014-09-13 16:32:00+00:00,2014-10-09 17:20:00+00:00,26 days 00:48:00,2014,100.0,True,2014-09-13
47,siskiyou,0.0,0.0,CAL FIRE Siskiyou Unit / USFS-Klamath National Forest,July Complex,50042.0,2014-08-02 09:00:00+00:00,2014-08-06 10:00:00+00:00,4 days 01:00:00,2014,100.0,False,2014-08-02
45,shasta,40.901,-121.368,CAL FIRE Lassen-Modoc Unit / USFS - Lassen National Forest,Bald Fire,39736.0,2014-07-30 20:15:00+00:00,2014-08-15 14:00:00+00:00,15 days 17:45:00,2014,100.0,False,2014-07-30
47,siskiyou,42.048,-122.345,CAL FIRE Siskiyou Unit / Oregon Dept. of Forestry / Oregon Office of The State Fire Marshal,Oregon Gulch Fire (part of the Beaver Complex),35302.0,2014-07-30 23:00:00+00:00,2014-08-18 09:45:00+00:00,18 days 10:45:00,2014,100.0,False,2014-07-30
47,siskiyou,0.0,0.0,US Forest Service - Klamath National Forest,Beaver Fire,32496.0,2014-07-30 00:00:00+00:00,2014-09-02 13:00:00+00:00,34 days 13:00:00,2014,100.0,False,2014-07-30
45,shasta,40.72,-121.562,CAL FIRE / USFS - Lassen National Forest,Eiler Fire,32416.0,2014-07-31 18:04:00+00:00,2014-08-25 10:00:00+00:00,24 days 15:56:00,2014,100.0,True,2014-07-31
37,san diego,0.0,0.0,Marine Corps Base Camp Pendleton,Pulgas Fire,14416.0,2014-05-15 14:45:00+00:00,2014-05-21 17:00:00+00:00,6 days 02:15:00,2014,100.0,False,2014-05-15
20,madera,0.0,0.0,US Forest Service - Sierra National Forest,French Fire,13838.0,2014-07-28 05:45:00+00:00,2014-07-28 14:30:00+00:00,0 days 08:45:00,2014,100.0,False,2014-07-28
25,modoc,41.1336,-121.2144,CAL FIRE Lassen-Modoc Unit,Day Fire,13153.0,2014-07-30 19:01:00+00:00,2014-08-13 07:00:00+00:00,13 days 11:59:00,2014,100.0,True,2014-07-30
45,shasta,40.4314,-122.750788,CAL FIRE Shasta-Trinity Unit,Bully Fire,12661.0,2014-07-11 15:37:00+00:00,2014-07-26 20:00:00+00:00,15 days 04:23:00,2014,100.0,True,2014-07-11
23,mendocino,0.0,0.0,CAL FIRE Mendocino Unit,Lodge Lightning Complex,12536.0,2014-07-30 06:27:00+00:00,2014-09-09 19:30:00+00:00,41 days 13:03:00,2014,100.0,True,2014-07-30
57,yolo,38.512,-122.104,CAL FIRE Sonoma-Lake-Napa Unit,Monticello Fire,6488.0,2014-07-04 21:32:00+00:00,2014-07-12 18:00:00+00:00,7 days 20:28:00,2014,100.0,True,2014-07-04
45,shasta,41.14100000000001,-122.805,US Forest Service - Shasta Trinity National Forest,Coffee Fire,6258.0,2014-07-30 20:30:00+00:00,2014-11-14 13:00:00+00:00,106 days 16:30:00,2014,100.0,False,2014-07-30
47,siskiyou,41.682,-122.127,CAL FIRE Siskiyou Unit / USFS-Klamath National Forest,Little Deer Fire,5503.0,2014-07-31 17:45:00+00:00,2014-08-18 10:00:00+00:00,17 days 16:15:00,2014,100.0,False,2014-07-31
37,san diego,33.3529,-117.284889,Marine Corps Base Camp Pendleton,Tomahawk Fire,5367.0,2014-05-14 09:45:00+00:00,2014-05-19 09:20:00+00:00,4 days 23:35:00,2014,100.0,True,2014-05-14
27,monterey,0.0,0.0,"Department of Defense, US Army",Stoney Fire,4840.0,2014-06-19 15:14:00+00:00,2014-06-21 19:00:00+00:00,2 days 03:46:00,2014,100.0,False,2014-06-19
22,mariposa,0.0,0.0,Yosemite National Park,Meadow Fire,4772.0,2014-08-16 00:00:00+00:00,2014-12-12 13:45:00+00:00,118 days 13:45:00,2014,100.0,False,2014-08-16
22,mariposa,0.0,0.0,Yosemite National Park and Stanislaus National Forest,El Portal Fire,4689.0,2014-07-26 17:00:00+00:00,2014-08-10 08:15:00+00:00,14 days 15:15:00,2014,100.0,False,2014-07-26
"28,17",napa,38.664,-122.454,CAL FIRE Sonoma-Lake-Napa Unit,Butts Fire,4300.0,2014-07-01 12:08:00+00:00,2014-07-09 18:00:00+00:00,8 days 05:52:00,2014,100.0,True,2014-07-01
"28,17",lake,38.664,-122.454,CAL FIRE Sonoma-Lake-Napa Unit,Butts Fire,4300.0,2014-07-01 12:08:00+00:00,2014-07-09 18:00:00+00:00,8 days 05:52:00,2014,100.0,True,2014-07-01
"3,9",amador,38.5691,-120.7819,CAL FIRE Amador-El Dorado Unit,Sand Fire,4240.0,2014-07-25 16:34:00+00:00,2014-08-02 19:15:00+00:00,8 days 02:41:00,2014,100.0,True,2014-07-25
"3,9",el dorado,38.5691,-120.7819,CAL FIRE Amador-El Dorado Unit,Sand Fire,4240.0,2014-07-25 16:34:00+00:00,2014-08-02 19:15:00+00:00,8 days 02:41:00,2014,100.0,True,2014-07-25
15,kern,35.7206,-118.4747,Kern County Fire / Sequoia National Forest ,Way Fire,4045.0,2014-08-18 14:30:00+00:00,2014-08-27 18:00:00+00:00,9 days 03:30:00,2014,100.0,False,2014-08-18
15,kern,35.70683,-118.555527,Sequoia National Forest,Shirley Fire,3895.0,2014-06-13 17:00:00+00:00,2014-06-20 08:30:00+00:00,6 days 15:30:00,2014,100.0,False,2014-06-13
36,san bernardino,34.169346000000004,-117.547374,CAL FIRE San Bernardino / USFS / Rancho Cucamonga Fire,Etiwanda Fire,2143.0,2014-04-30 08:00:00+00:00,2014-05-05 17:30:00+00:00,5 days 09:30:00,2014,100.0,True,2014-04-30
37,san diego,33.1137,-117.1599,San Marcos Fire / CAL FIRE San Diego Unit / Elfin Forest Fire Dept,Cocos Fire,1995.0,2014-05-14 16:00:00+00:00,2014-05-22 18:15:00+00:00,8 days 02:15:00,2014,100.0,True,2014-05-14
19,los angeles,34.1703,-117.8816,Angeles National Forest and LA County Fire Department,Colby Fire,1952.0,2014-01-16 05:50:00+00:00,2014-01-27 10:00:00+00:00,11 days 04:10:00,2014,100.0,False,2014-01-16
15,kern,35.642,-118.15,Sequoia National Forest,Nicolls Fire ,1680.0,2014-07-11 13:46:00+00:00,2014-07-21 14:45:00+00:00,10 days 00:59:00,2014,100.0,False,2014-07-11
25,modoc,41.89,-120.79,Modoc National Forest,Modoc Lightning Complex,1651.0,2014-07-01 19:00:00+00:00,2014-07-03 10:30:00+00:00,1 days 15:30:00,2014,100.0,False,2014-07-01
37,san diego,33.003,-117.133,CAL FIRE San Diego Unit/San Diego City Fire/Rancho Santa Fe Fire District,Bernardo Fire,1548.0,2014-05-13 11:00:00+00:00,2014-05-17 20:14:00+00:00,4 days 09:14:00,2014,100.0,True,2014-05-13
25,modoc,41.489,-120.904,CAL FIRE Lassen-Modoc Unit / Modoc National Forest,Gulch Fire,1469.0,2014-07-03 15:46:00+00:00,2014-07-07 07:00:00+00:00,3 days 15:14:00,2014,100.0,True,2014-07-03
37,san diego,33.417572,-117.550567,Marine Corps Base Camp Pendleton,San Mateo Fire,1457.0,2014-05-16 11:24:00+00:00,2014-05-20 23:30:00+00:00,4 days 12:06:00,2014,100.0,False,2014-05-16
45,shasta,40.7101,-122.171,CAL FIRE Shasta-Trinity Unit,Gulch Fire,1375.0,2014-09-10 00:30:00+00:00,2014-09-16 09:30:00+00:00,6 days 09:00:00,2014,100.0,True,2014-09-10
22,mariposa,0.0,0.0,Yosemite National Park,Dark Hole Fire,1080.0,2014-07-17 01:00:00+00:00,2014-08-20 19:00:00+00:00,34 days 18:00:00,2014,100.0,False,2014-07-17
30,orange,33.748000000000005,-117.601,US Forest Service - Cleveland National Forest,Silverado Fire,968.0,2014-09-12 10:30:00+00:00,2014-09-22 15:00:00+00:00,10 days 04:30:00,2014,100.0,False,2014-09-12
52,tehama,40.134597,-121.790183,Lassen National Forest,Campbell Fire,865.0,2014-01-02 20:00:00+00:00,2014-01-10 18:30:00+00:00,7 days 22:30:00,2014,100.0,False,2014-01-02
22,mariposa,0.0,0.0,CAL FIRE Madera-Mariposa-Merced Unit,Hunters Fire,677.0,2014-05-26 15:33:00+00:00,2014-06-02 18:30:00+00:00,7 days 02:57:00,2014,100.0,True,2014-05-26
42,santa barbara,34.609,-120.454,Santa Barbara County Fire,Miguelito Fire,632.0,2014-05-13 14:00:00+00:00,2014-05-19 09:20:00+00:00,5 days 19:20:00,2014,100.0,True,2014-05-13
20,madera,37.3433,-119.6581,CAL FIRE Madera-Mariposa-Merced Unit,Junction Fire,612.0,2014-08-18 13:50:00+00:00,2014-08-25 08:25:00+00:00,6 days 18:35:00,2014,100.0,True,2014-08-18
37,san diego,33.1109,-117.279,Carlsbad Fire Department,Poinsettia Fire,600.0,2014-05-14 10:30:00+00:00,2014-05-17 00:00:00+00:00,2 days 13:30:00,2014,100.0,False,2014-05-14
53,trinity,40.7412,-122.946,CAL FIRE Shasta-Trinity Unit,Oregon Fire,580.0,2014-08-24 16:36:00+00:00,2014-08-28 19:00:00+00:00,4 days 02:24:00,2014,100.0,True,2014-08-24
47,siskiyou,41.42384000000001,-122.37432,CAL FIRE Siskiyou Unit,Boles Fire,516.0,2014-09-15 13:38:00+00:00,2014-10-11 18:50:00+00:00,26 days 05:12:00,2014,100.0,True,2014-09-15
55,tuolumne,37.76617,-120.45087,CAL FIRE Tuolumne-Calaveras Unit,59 Fire,487.0,2014-06-04 11:45:00+00:00,2014-06-05 20:00:00+00:00,1 days 08:15:00,2014,100.0,False,2014-06-04
31,placer,0.0,0.0,CAL FIRE Nevada-Yuba-Placer Unit,Applegate Fire,459.0,2014-10-08 13:33:00+00:00,2014-10-15 07:50:00+00:00,6 days 18:17:00,2014,100.0,True,2014-10-08
23,mendocino,0.0,0.0,CAL FIRE Mendocino Unit,Black Fire,403.0,2014-09-13 15:48:00+00:00,2014-09-17 16:10:00+00:00,4 days 00:22:00,2014,100.0,True,2014-09-13
27,monterey,36.6313,-121.4819,CAL FIRE San Benito-Monterey Unit,Encinal Fire,400.0,2014-03-19 16:45:00+00:00,2014-03-21 18:00:00+00:00,2 days 01:15:00,2014,100.0,True,2014-03-19
4,butte,0.0,0.0,CAL FIRE Butte Unit,Web Fire,389.0,2014-07-28 13:11:00+00:00,2014-08-01 17:30:00+00:00,4 days 04:19:00,2014,100.0,True,2014-07-28
37,san diego,33.312,-117.162,CAL FIRE San Diego Unit,Highway Fire,380.0,2014-05-14 13:00:00+00:00,2014-05-15 18:30:00+00:00,1 days 05:30:00,2014,100.0,True,2014-05-14
33,riverside,0.0,0.0,CAL FIRE / Riverside County Fire Department,Pierce Fire,350.0,2014-03-15 16:37:00+00:00,2014-03-16 08:30:00+00:00,0 days 15:53:00,2014,100.0,False,2014-03-15
12,humboldt,40.884415,-123.773779,CAL FIRE Humboldt Del-Norte Unit,Red Fire,333.0,2014-01-04 12:00:00+00:00,2014-01-08 19:15:00+00:00,4 days 07:15:00,2014,100.0,False,2014-01-04
20,madera,37.311915,-119.604124,CAL FIRE Madera-Mariposa-Merced Unit,Courtney Fire,320.0,2014-09-14 13:36:00+00:00,2014-09-22 07:15:00+00:00,7 days 17:39:00,2014,100.0,True,2014-09-14
22,mariposa,37.0,40.34,Yosemite National Park,Dog Rock Fire,311.0,2014-10-07 15:05:00+00:00,2014-10-12 18:00:00+00:00,5 days 02:55:00,2014,100.0,False,2014-10-07
22,mariposa,0.0,0.0,CAL FIRE is in Unified Command with Mariposa County Fire and Sheriffâ€™s Departments,Bridge Fire,300.0,2014-09-05 12:39:00+00:00,2014-09-12 09:00:00+00:00,6 days 20:21:00,2014,100.0,True,2014-09-05
24,merced,0.0,0.0,CAL FIRE Madera-Mariposa-Merced Unit,Gun Club Fire,300.0,2014-07-24 12:06:00+00:00,2014-07-25 09:15:00+00:00,0 days 21:09:00,2014,100.0,False,2014-07-24
19,los angeles,34.267,-117.867,US Forest Service - Angeles National Forest,Tecolote Fire,274.0,2014-08-17 14:30:00+00:00,2014-12-12 13:30:00+00:00,116 days 23:00:00,2014,100.0,False,2014-08-17
55,tuolumne,37.787,-120.452,CAL FIRE Tuolumne-Calaveras Unit,Hetch Hetchy Fire,269.0,2014-06-05 13:04:00+00:00,2014-06-06 09:30:00+00:00,0 days 20:26:00,2014,100.0,False,2014-06-05
29,nevada,39.113682,-120.999508,CAL FIRE Nevada-Yuba-Placer Unit,Dog Bar Fire,247.0,2014-09-13 14:07:00+00:00,2014-09-18 18:45:00+00:00,5 days 04:38:00,2014,100.0,True,2014-09-13
52,tehama,40.009827,-122.345078,CAL FIRE Tehama-Glenn Unit,Tehama Fire,225.0,2014-06-13 12:23:00+00:00,2014-06-13 13:50:00+00:00,0 days 01:27:00,2014,100.0,False,2014-06-13
37,san diego,33.078948,-116.576454,CAL FIRE San Diego Unit,Banner Fire,217.0,2014-07-03 10:43:00+00:00,2014-07-06 09:15:00+00:00,2 days 22:32:00,2014,100.0,True,2014-07-03
12,humboldt,41.13399999999999,-123.753,Six Rivers National Forest,Bald Hill 3 Fire,210.0,2014-09-12 15:00:00+00:00,2014-09-15 11:00:00+00:00,2 days 20:00:00,2014,100.0,False,2014-09-12
19,los angeles,34.235,-117.771,US Forest Service - Angeles National Forest,Shoemaker Fire,190.0,2014-08-14 12:48:00+00:00,2014-12-12 14:00:00+00:00,120 days 01:12:00,2014,100.0,False,2014-08-14
17,lake,39.1647,-122.5983,CAL FIRE Sonoma-Lake-Napa Unit,Indian Fire,175.0,2014-05-25 12:20:00+00:00,2014-05-26 08:45:00+00:00,0 days 20:25:00,2014,100.0,False,2014-05-25
45,shasta,40.6569,-122.2215,CAL FIRE Shasta-Trinity Unit,Dry Fire,143.0,2014-07-09 13:45:00+00:00,2014-07-10 07:30:00+00:00,0 days 17:45:00,2014,100.0,False,2014-07-09
22,mariposa,37.7103,-120.197,CAL FIRE Madera-Mariposa-Merced Unit,Haigh Fire,130.0,2014-06-10 15:11:00+00:00,2014-06-13 18:30:00+00:00,3 days 03:19:00,2014,100.0,True,2014-06-10
43,santa clara,0.0,0.0,CAL FIRE Santa Clara Unit,Curie Fire,125.0,2014-06-30 14:10:00+00:00,2014-07-01 08:30:00+00:00,0 days 18:20:00,2014,100.0,False,2014-06-30
37,san diego,32.81,-116.49,USFS - Cleveland National Forest,Gun Fire,125.0,2014-03-08 12:30:00+00:00,2014-03-11 11:00:00+00:00,2 days 22:30:00,2014,100.0,False,2014-03-08
5,calaveras,120.679019,38.178241,CAL FIRE Tuolumne Calaveras Unit,Reed Fire,120.0,2014-06-20 15:27:00+00:00,2014-06-21 19:00:00+00:00,1 days 03:33:00,2014,100.0,False,2014-06-20
31,placer,0.0,0.0,CAL FIRE Nevada-Placer-Yuba Unit / Placer County Fire,Brewer Fire,120.0,2014-01-22 13:10:00+00:00,2014-01-22 16:35:00+00:00,0 days 03:25:00,2014,100.0,False,2014-01-22
14,inyo,37.399,-118.352,CAL FIRE San Bernardino Unit,Bridges Fire,113.0,2014-04-19 15:54:00+00:00,2014-04-21 19:15:00+00:00,2 days 03:21:00,2014,100.0,True,2014-04-19
10,fresno,36.8266,-119.3415,CAL FIRE Fresno-Kings Unit,Lake Fire,106.0,2014-01-25 06:37:00+00:00,2014-01-26 18:00:00+00:00,1 days 11:23:00,2014,100.0,False,2014-01-25
37,san diego,0.0,0.0,Oceanside Fire Department,River Fire,105.0,2014-05-14 12:12:00+00:00,2014-05-19 09:20:00+00:00,4 days 21:08:00,2014,100.0,False,2014-05-14
25,modoc,41.507,-121.266,US Forest Service - Modoc National Forest ,Little Fire,101.0,2014-08-12 15:00:00+00:00,2014-08-13 06:15:00+00:00,0 days 15:15:00,2014,100.0,False,2014-08-12
17,lake,0.0,0.0,CAL FIRE Sonoma-Lake-Napa Unit,Saratoga Fire,100.0,2014-09-03 16:03:00+00:00,2014-09-05 18:30:00+00:00,2 days 02:27:00,2014,100.0,False,2014-09-03
33,riverside,0.0,0.0,CAL FIRE Riverside Unit / Riverside County Fire,Interstate Fire,100.0,2014-09-01 14:03:00+00:00,2014-09-01 22:00:00+00:00,0 days 07:57:00,2014,100.0,False,2014-09-01
9,el dorado,38.59,-120.028,US Forest Service - El Dorado National Forest,Irene Fire,94.0,2014-09-14 09:15:00+00:00,2014-09-17 18:45:00+00:00,3 days 09:30:00,2014,100.0,False,2014-09-14
22,mariposa,0.0,0.0,CAL FIRE Madera-Mariposa-Merced Unit,Valley Fire,90.0,2014-06-06 17:29:00+00:00,2014-06-08 19:45:00+00:00,2 days 02:16:00,2014,100.0,True,2014-06-06
5,calaveras,38.058,-120.66,CAL FIRE Tuolumne Calaveras Unit,Oak Fire,85.0,2014-06-22 12:37:00+00:00,2014-06-24 19:00:00+00:00,2 days 06:23:00,2014,100.0,True,2014-06-22
29,nevada,39.3918,-120.0805,US Forest Service - Tahoe National Forest,Boca Fire,84.0,2014-08-18 10:00:00+00:00,2014-08-19 16:45:00+00:00,1 days 06:45:00,2014,100.0,False,2014-08-18
43,santa clara,0.0,0.0,CAL FIRE Santa Clara Unit,Casa Fire,80.0,2014-08-28 15:10:00+00:00,2014-08-31 08:15:00+00:00,2 days 17:05:00,2014,100.0,False,2014-08-28
7,contra costa,37.5359,-121.5118,CAL FIRE Santa Clara Unit,Marsh Fire,80.0,2014-07-11 21:57:00+00:00,2014-07-12 18:00:00+00:00,0 days 20:03:00,2014,100.0,True,2014-07-11
22,mariposa,0.0,0.0,Stanislaus National Forest ,Montgomery Fire,79.0,2014-09-07 16:46:00+00:00,2014-09-09 19:45:00+00:00,2 days 02:59:00,2014,100.0,False,2014-09-07
33,riverside,0.0,0.0,CAL FIRE/Riverside County Fire,Sabina Fire,78.0,2014-07-23 10:47:00+00:00,2014-07-24 09:00:00+00:00,0 days 22:13:00,2014,100.0,False,2014-07-23
45,shasta,40.5719,-121.3415,CAL FIRE Shasta-Trinity Unit,Cassel Fire,75.0,2014-07-05 18:44:00+00:00,2014-07-08 18:30:00+00:00,2 days 23:46:00,2014,100.0,True,2014-07-05
27,monterey,36.103,-121.117,CAL FIRE San Benito-Monterey Unit,San Lucas Fire,75.0,2014-04-30 14:25:00+00:00,2014-05-01 19:00:00+00:00,1 days 04:35:00,2014,100.0,False,2014-04-30
4,butte,39.4664,-121.6129,CAL FIRE Butte Unit,Wildlife Fire,72.0,2014-07-14 18:00:00+00:00,2014-07-16 08:00:00+00:00,1 days 14:00:00,2014,100.0,False,2014-07-14
55,tuolumne,37.8316,-120.3434,CAL FIRE Tuolumne Caleveras Unit,Jackson Fire,70.0,2014-09-04 11:51:00+00:00,2014-09-05 09:15:00+00:00,0 days 21:24:00,2014,100.0,False,2014-09-04
15,kern,0.0,0.0,Sequoia National Forest,Ranch Fire,70.0,2014-07-01 18:15:00+00:00,2014-07-06 08:30:00+00:00,4 days 14:15:00,2014,100.0,False,2014-07-01
48,solano,121.999,38.453,CAL FIRE Sonoma-Lake-Napa Unit,Norman Fire,70.0,2014-06-12 14:29:00+00:00,2014-06-13 08:00:00+00:00,0 days 17:31:00,2014,100.0,False,2014-06-12
14,inyo,0.0,0.0,Inyo National Forest,June Fire,65.0,2014-09-16 19:07:00+00:00,2014-09-21 09:00:00+00:00,4 days 13:53:00,2014,100.0,False,2014-09-16
23,mendocino,0.0,0.0,CAL FIRE Mendocino Unit,Nelson Fire,62.0,2014-09-21 16:13:00+00:00,2014-09-22 16:30:00+00:00,1 days 00:17:00,2014,100.0,True,2014-09-21
4,butte,0.0,0.0,CAL FIRE Butte Unit,Honcut Fire,60.0,2014-01-01 10:46:00+00:00,2014-01-02 07:30:00+00:00,0 days 20:44:00,2014,100.0,False,2014-01-01
33,riverside,33.5982,-116.1985,CAL FIRE / Riverside County Fire,Van Buren Fire,57.0,2014-03-28 14:31:00+00:00,2014-03-29 17:15:00+00:00,1 days 02:44:00,2014,100.0,False,2014-03-28
37,san diego,0.0,0.0,Marine Corps Base - Camp Pendleton,Freeway Fire ,56.0,2014-05-14 17:43:00+00:00,2014-05-20 11:30:00+00:00,5 days 17:47:00,2014,100.0,False,2014-05-14
45,shasta,40.39,-122.721,CAL FIRE Shasta-Trinity Unit,Fiddler Fire,50.0,2014-05-14 14:00:00+00:00,2014-05-15 11:30:00+00:00,0 days 21:30:00,2014,100.0,False,2014-05-14
36,san bernardino,33.93869,-117.70643,CAL FIRE San Bernardino Unit / Chino Valley Fire District,Bane Fire,48.0,2014-10-16 14:34:00+00:00,2014-10-17 18:15:00+00:00,1 days 03:41:00,2014,100.0,False,2014-10-16
",40",san luis obispo,35.8218,-121.0226,CAL FIRE San Benito-Monterey Unit,Interlake Fire,47.0,2014-07-07 16:12:00+00:00,2014-07-08 18:30:00+00:00,1 days 02:18:00,2014,100.0,False,2014-07-07
10,fresno,36.991825,-119.525506,CAL FIRE Fresno-Kings Unit,Morgan Fire,40.0,2014-06-09 15:15:00+00:00,2014-06-11 07:30:00+00:00,1 days 16:15:00,2014,100.0,True,2014-06-09
29,nevada,39.1871,-121.2687,CAL FIRE Nevada-Yuba-Placer,Hutto Fire,38.0,2014-07-07 16:35:00+00:00,2014-07-08 06:56:00+00:00,0 days 14:21:00,2014,100.0,False,2014-07-07
12,humboldt,0.0,0.0,CAL FIRE Humboldt-Del Norte Unit,McClellan Fire,37.0,2014-08-01 15:47:00+00:00,2014-08-02 08:00:00+00:00,0 days 16:13:00,2014,100.0,False,2014-08-01
50,stanislaus,0.0,0.0,CAL FIRE Tuolumne-Calaveras Unit,Lake Fire,37.0,2014-05-27 11:23:00+00:00,2014-05-29 08:45:00+00:00,1 days 21:22:00,2014,100.0,False,2014-05-27
33,riverside,0.0,0.0,CAL FIRE Riverside County Fire,Bogart Fire,31.0,2014-06-06 17:32:00+00:00,2014-06-07 19:00:00+00:00,1 days 01:28:00,2014,100.0,True,2014-06-06
47,siskiyou,0.0,0.0,CAL FIRE Siskiyou Unit,Siskiyou County Lightning Fires,30.0,2014-07-29 13:00:00+00:00,2014-08-02 11:00:00+00:00,3 days 22:00:00,2014,100.0,True,2014-07-29
9,el dorado,38.608336,-120.70323799999998,CAL FIRE Amador-El Dorado Unit,Bible Fire,30.0,2014-07-09 14:34:00+00:00,2014-07-09 16:45:00+00:00,0 days 02:11:00,2014,100.0,False,2014-07-09
37,san diego,32.665,-116.222,CAL FIRE San Diego Unit,Jacumba Fire,29.0,2014-05-05 16:36:00+00:00,2014-05-06 10:20:00+00:00,0 days 17:44:00,2014,100.0,False,2014-05-05
28,napa,38.695961,-122.384054,CAL FIRE Sonoma-Lake-Napa Unit,Stage Coach Fire,27.0,2014-09-11 15:14:00+00:00,2014-09-15 14:20:00+00:00,3 days 23:06:00,2014,100.0,False,2014-09-11
56,ventura,0.0,0.0,Ventura County Fire Department,Foothill Fire ,25.0,2014-09-29 19:35:00+00:00,2014-09-30 15:00:00+00:00,0 days 19:25:00,2014,100.0,False,2014-09-29
45,shasta,40.0,29.24,CAL FIRE Shasta-Trinity Unit,Leopard Fire,25.0,2014-08-29 12:21:00+00:00,2014-08-29 13:15:00+00:00,0 days 00:54:00,2014,100.0,False,2014-08-29
10,fresno,36.742747,-119.241493,CAL FIRE Fresno-Kings Unit,Hall Fire,25.0,2014-06-11 07:30:00+00:00,2014-06-09 19:15:00+00:00,-2 days +11:45:00,2014,100.0,False,2014-06-11
9,el dorado,38.9195001,-120.1140659,US Forest Service - Lake Tahoe Basin Management Unit,Cascade Fire,20.0,2014-09-25 18:00:00+00:00,2014-09-25 07:27:00+00:00,-1 days +13:27:00,2014,100.0,False,2014-09-25
37,san diego,32.59154,-116.89516,CAL FIRE San Diego Unit,Border Fire,20.0,2014-08-16 16:22:00+00:00,2014-08-17 07:45:00+00:00,0 days 15:23:00,2014,100.0,False,2014-08-16
12,humboldt,0.0,0.0,CAL FIRE Humboldt Del-Norte Unit,Bridge Fire,18.0,2014-01-03 10:30:00+00:00,2014-01-04 18:30:00+00:00,1 days 08:00:00,2014,100.0,False,2014-01-03
53,trinity,40.41,-123.24,Shasta - Trinity National Forest,West Fire,15.0,2014-07-01 03:45:00+00:00,2014-07-03 10:45:00+00:00,2 days 07:00:00,2014,100.0,False,2014-07-01
31,placer,0.0,0.0,CAL FIRE Nevada-Yuba-Placer Unit,Iowa Fire,14.0,2014-07-21 14:49:00+00:00,2014-07-22 18:00:00+00:00,1 days 03:11:00,2014,100.0,False,2014-07-21
33,riverside,0.0,0.0,CAL FIRE Riverside Unit,Santa Fire,14.0,2014-06-04 15:18:00+00:00,2014-06-04 16:30:00+00:00,0 days 01:12:00,2014,100.0,False,2014-06-04
20,madera,37.0,18.4,USFS - Sierra National Forest,Pines Fire,10.0,2014-08-26 16:23:00+00:00,2014-12-12 13:45:00+00:00,107 days 21:22:00,2014,100.0,False,2014-08-26
28,napa,0.0,0.0,CAL FIRE / Napa County Fire,South Napa Earthquake,6.0,2014-08-24 03:20:00+00:00,2014-08-31 18:00:00+00:00,7 days 14:40:00,2014,100.0,False,2014-08-24
47,siskiyou,41.79600000000001,-123.374,US Forest Service - Klamath National Forest,Happy Camp Complex,0.0,2014-08-11 22:00:00+00:00,2014-08-14 09:30:00+00:00,2 days 11:30:00,2014,100.0,False,2014-08-11
10,fresno,36.874,-118.905,Sierra National Forest ,Rough Fire ,151623.0,2015-07-31 19:00:00+00:00,2015-11-09 12:00:00+00:00,100 days 17:00:00,2015,100.0,False,2015-07-31
53,trinity,0.0,0.0,USFS - Shasta-Trinity National Forest,River Complex,77081.0,2015-07-30 22:30:00+00:00,2015-07-31 20:25:00+00:00,0 days 21:55:00,2015,100.0,False,2015-07-30
17,lake,38.8863538,-122.4762475,CAL FIRE Sonoma-Lake-Napa Unit,Rocky Fire,69438.0,2015-07-29 15:29:00+00:00,2015-08-14 18:15:00+00:00,16 days 02:46:00,2015,100.0,True,2015-07-29
53,trinity,0.0,0.0,USFS - Shasta-Trinity National Forest,Fork Complex,36503.0,2015-07-30 21:30:00+00:00,2015-08-24 10:00:00+00:00,24 days 12:30:00,2015,100.0,False,2015-07-30
36,san bernardino,34.160277777778,-116.89277777778,CAL FIRE / San Bernardino National Forest / San Bernardino County Fire/ San Bernardino County Sheriffs,Lake Fire,31359.0,2015-06-17 15:52:00+00:00,2015-08-01 22:15:00+00:00,45 days 06:23:00,2015,100.0,False,2015-06-17
8,del norte,0.0,0.0,USFS - Six Rivers National Forest,Gasquet Complex,30361.0,2015-07-31 21:00:00+00:00,2015-08-04 09:00:00+00:00,3 days 12:00:00,2015,100.0,False,2015-07-31
53,trinity,0.0,0.0,USFS - Shasta - Trinity National Forest,South Complex,29416.0,2015-07-30 16:00:00+00:00,2015-08-03 14:00:00+00:00,3 days 22:00:00,2015,100.0,False,2015-07-30
"17,28",lake,38.8142503,-122.4867319,CAL FIRE Sonoma-Lake-Napa Unit,Jerusalem Fire,25118.0,2015-08-09 15:34:00+00:00,2015-08-25 06:45:00+00:00,15 days 15:11:00,2015,100.0,True,2015-08-09
"17,28",napa,38.8142503,-122.4867319,CAL FIRE Sonoma-Lake-Napa Unit,Jerusalem Fire,25118.0,2015-08-09 15:34:00+00:00,2015-08-25 06:45:00+00:00,15 days 15:11:00,2015,100.0,True,2015-08-09
18,lassen,40.938,-120.105,Bureau of Land Management,Dodge Fire,10570.0,2015-08-03 14:15:00+00:00,2015-08-04 10:37:00+00:00,0 days 20:22:00,2015,100.0,False,2015-08-03
8,del norte,0.0,0.0,USFS - Six Rivers National Forest,Nickowitz Fire,7509.0,2015-08-01 23:23:00+00:00,2015-11-09 12:00:00+00:00,99 days 12:37:00,2015,100.0,False,2015-08-01
"14,26",inyo,0.0,0.0,CAL FIRE San Bernardino Unit,Round Fire,7000.0,2015-02-06 14:07:00+00:00,2015-02-12 07:35:00+00:00,5 days 17:28:00,2015,100.0,True,2015-02-06
"14,26",mono,0.0,0.0,CAL FIRE San Bernardino Unit,Round Fire,7000.0,2015-02-06 14:07:00+00:00,2015-02-12 07:35:00+00:00,5 days 17:28:00,2015,100.0,True,2015-02-06
54,tulare,36.24,-118.54,USFS - Sequoia National Forest,Cabin Fire,6980.0,2015-07-19 08:00:00+00:00,2015-09-05 18:00:00+00:00,48 days 10:00:00,2015,100.0,False,2015-07-19
20,madera,37.279722,-119.50014,US Forest Service - Sierra National Forest ,Willow Fire,5702.0,2015-07-25 14:30:00+00:00,2015-08-13 10:30:00+00:00,18 days 20:00:00,2015,100.0,False,2015-07-25
12,humboldt,0.0,0.0,CAL FIRE Humboldt - Del Norte Unit,Humboldt Lightning Fires,4883.0,2015-07-30 16:02:00+00:00,2015-08-19 19:15:00+00:00,20 days 03:13:00,2015,100.0,True,2015-07-30
25,modoc,41.399,-121.392,USFS Modoc National Forest,Frog Fire,4863.0,2015-07-30 17:45:00+00:00,2015-07-31 20:00:00+00:00,1 days 02:15:00,2015,100.0,False,2015-07-30
36,san bernardino,34.339,-117.478,CAL FIRE San Bernardino Unit/ San Bernardino National Forest / San Bernardino County Fire ,North Fire,4250.0,2015-07-17 14:33:00+00:00,2015-07-21 07:00:00+00:00,3 days 16:27:00,2015,100.0,True,2015-07-17
26,mono,0.0,0.0,Inyo National Forest,Walker Fire,3676.0,2015-08-14 21:31:00+00:00,2015-08-23 17:45:00+00:00,8 days 20:14:00,2015,100.0,False,2015-08-14
1,alameda,37.3845,-121.3732,CAL FIRE Santa Clara Unit,Tesla Fire,2700.0,2015-08-19 14:45:00+00:00,2015-08-22 18:30:00+00:00,3 days 03:45:00,2015,100.0,True,2015-08-19
40,san luis obispo,35.3477,-120.6269,CAL FIRE San Luis Obispo Unit/ Los Padres National Forest ,Cuesta Fire,2446.0,2015-08-16 18:13:00+00:00,2015-08-28 18:15:00+00:00,12 days 00:02:00,2015,100.0,True,2015-08-16
29,nevada,39.192088,-120.88231299999998,CAL FIRE Nevada-Yuba-Placer Unit,Lowell Fire,2304.0,2015-07-25 14:37:00+00:00,2015-08-12 19:15:00+00:00,18 days 04:38:00,2015,100.0,True,2015-07-25
37,san diego,0.0,0.0,Camp Pendleton Military Base,Horno Fire,1850.0,2015-08-13 13:03:00+00:00,2015-08-18 19:00:00+00:00,5 days 05:57:00,2015,100.0,False,2015-08-13
40,san luis obispo,0.0,0.0,CAL FIRE San Luis Obispo Unit,Park Hill Fire,1791.0,2015-06-20 14:41:00+00:00,2015-06-24 18:30:00+00:00,4 days 03:49:00,2015,100.0,True,2015-06-20
53,trinity,40.924,-123.168,USFS Shasta-Trinity National Forest ,Saddle Fire ,1542.0,2015-06-10 15:00:00+00:00,2015-06-29 09:00:00+00:00,18 days 18:00:00,2015,100.0,False,2015-06-10
24,merced,0.0,0.0,CAL FIRE Madera-Mariposa-Merced Unit,Creek Fire,1450.0,2015-07-31 21:37:00+00:00,2015-08-01 19:00:00+00:00,0 days 21:23:00,2015,100.0,False,2015-07-31
24,merced,0.0,0.0,CAL FIRE Madera-Mariposa-Merced Unit,McCabe Fire,1333.0,2015-07-18 22:27:00+00:00,2015-07-21 07:15:00+00:00,2 days 08:48:00,2015,100.0,True,2015-07-18
27,monterey,36.3699644,-121.589554,CAL FIRE San Benito-Monterey Unit,Tassajara Fire,1086.0,2015-09-19 15:00:00+00:00,2015-09-27 18:15:00+00:00,8 days 03:15:00,2015,100.0,True,2015-09-19
33,riverside,33.884313,-117.642759,CAL FIRE/Riverside County Fire,Highway Fire,1049.0,2015-04-18 18:12:00+00:00,2015-04-24 07:30:00+00:00,5 days 13:18:00,2015,100.0,True,2015-04-18
4,butte,39.5218,-121.3363,CAL FIRE Butte Unit,Lumpkin Fire,1042.0,2015-09-11 14:15:00+00:00,2015-09-17 19:30:00+00:00,6 days 05:15:00,2015,100.0,True,2015-09-11
20,madera,37.165767,-119.523943,CAL FIRE Madera-Mariposa-Merced Unit,Corrine Fire,920.0,2015-06-18 21:00:00+00:00,2015-06-25 18:45:00+00:00,6 days 21:45:00,2015,100.0,True,2015-06-18
4,butte,0.0,0.0,CAL FIRE Butte Unit / Butte County Fire,Meridian Fire,860.0,2015-10-03 21:15:00+00:00,2015-10-04 18:40:00+00:00,0 days 21:25:00,2015,100.0,True,2015-10-03
17,lake,55.23,-122.0,CAL FIRE Sonoma-Lake-Napa Unit / Mendocino National Forest,Elk Fire,673.0,2015-09-02 14:57:00+00:00,2015-09-08 19:28:00+00:00,6 days 04:31:00,2015,100.0,True,2015-09-02
35,san benito,36.70854,-121.32734,CAL FIRE San Benito - Monterey Unit,Cienega Fire,670.0,2015-10-12 16:00:00+00:00,2015-10-16 18:00:00+00:00,4 days 02:00:00,2015,100.0,True,2015-10-12
33,riverside,33.5736,-116.5387,CAL FIRE/Riverside County Fire,Anza Fire,543.0,2015-08-10 11:44:00+00:00,2015-08-15 17:30:00+00:00,5 days 05:46:00,2015,100.0,False,2015-08-10
26,mono,0.0,0.0,USFS - Inyo National Forest,Van Dyke Fire,509.0,2015-02-06 16:52:00+00:00,2015-02-20 19:00:00+00:00,14 days 02:08:00,2015,100.0,False,2015-02-06
20,madera,0.0,0.0,Sierra National Forest,Sky Fire,500.0,2015-06-18 14:31:00+00:00,2015-06-19 08:15:00+00:00,0 days 17:44:00,2015,100.0,False,2015-06-18
54,tulare,36.085212,-118.82423500000002,CAL FIRE Tulare Unit,Triple Fire,430.0,2015-07-21 12:35:00+00:00,2015-07-26 10:30:00+00:00,4 days 21:55:00,2015,100.0,True,2015-07-21
22,mariposa,0.0,0.0,USFS - Yosemite National Park,Tenaya Fire,415.0,2015-09-07 21:23:00+00:00,2015-09-11 11:00:00+00:00,3 days 13:37:00,2015,100.0,False,2015-09-07
19,los angeles,34.361007,-118.535793,Los Angeles County Fire ,Calgrove Fire ,415.0,2015-06-24 13:22:00+00:00,2015-06-26 17:00:00+00:00,2 days 03:38:00,2015,100.0,False,2015-06-24
4,butte,39.43963,-121.38794,CAL FIRE Butte Unit,Swedes Fire,400.0,2015-07-29 11:25:00+00:00,2015-08-03 17:00:00+00:00,5 days 05:35:00,2015,100.0,True,2015-07-29
19,los angeles,0.0,0.0,Los Angeles County Fire Department /  Montebello Fire Department,Lincoln Fire,374.0,2015-08-16 13:30:00+00:00,2015-08-20 08:10:00+00:00,3 days 18:40:00,2015,100.0,False,2015-08-16
3,amador,0.0,0.0,CAL FIRE Amador El Dorado Unit,Ione Fire,355.0,2015-07-02 01:58:00+00:00,2015-07-02 06:36:00+00:00,0 days 04:38:00,2015,100.0,True,2015-07-02
19,los angeles,0.0,0.0,Angeles National Forest,Warm Fire,300.0,2015-08-16 15:30:00+00:00,2015-08-16 20:00:00+00:00,0 days 04:30:00,2015,100.0,False,2015-08-16
1,alameda,0.0,0.0,CAL FIRE Santa Clara Unit,Site Fire,300.0,2015-06-05 20:22:00+00:00,2015-06-06 07:15:00+00:00,0 days 10:53:00,2015,100.0,False,2015-06-05
56,ventura,0.0,0.0,USFS - Los Padres National Forest,Chorro Fire,282.0,2015-08-02 13:15:00+00:00,2015-08-12 08:00:00+00:00,9 days 18:45:00,2015,100.0,False,2015-08-02
24,merced,37.08312,-121.06963,CAL FIRE Madera-Mariposa-Merced Unit,Forebay Fire,275.0,2015-05-11 10:26:00+00:00,2015-05-11 12:15:00+00:00,0 days 01:49:00,2015,100.0,False,2015-05-11
1,alameda,0.0,0.0,CAL FIRE Santa Clara Unit,Christensen Fire,242.0,2015-05-28 17:00:00+00:00,2015-05-28 10:30:00+00:00,-1 days +17:30:00,2015,100.0,False,2015-05-28
23,mendocino,0.0,0.0,USFS - Mendocino National Forest,Mendocino National Forest Lightning Complex,227.0,2015-07-30 14:00:00+00:00,2015-08-07 21:00:00+00:00,8 days 07:00:00,2015,100.0,False,2015-07-30
43,santa clara,0.0,0.0,CAL FIRE Santa Clara Unit,Pacheco Fire,215.0,2015-09-09 15:58:00+00:00,2015-09-10 18:50:00+00:00,1 days 02:52:00,2015,100.0,False,2015-09-09
17,lake,38.925764,-122.879272,CAL FIRE Sonoma-Lake-Napa Unit,Peterson Fire,215.0,2015-08-22 17:30:00+00:00,2015-08-27 15:15:00+00:00,4 days 21:45:00,2015,100.0,True,2015-08-22
30,orange,33.7626,-117.7274,Orange County Fire Authority,241 Fire,214.0,2015-07-13 10:47:00+00:00,2015-07-15 18:45:00+00:00,2 days 07:58:00,2015,100.0,False,2015-07-13
45,shasta,40.415108,-122.439939,CAL FIRE Shasta-Trinity Unit,China Fire,212.0,2015-07-29 17:55:00+00:00,2015-08-01 19:00:00+00:00,3 days 01:05:00,2015,100.0,True,2015-07-29
42,santa barbara,0.0,0.0,Santa Barnara County Fire Department,Mesa Fire,211.0,2015-06-29 13:11:00+00:00,2015-06-29 17:05:00+00:00,0 days 03:54:00,2015,100.0,False,2015-06-29
55,tuolumne,37.823,-120.15644,CAL FIRE Tuolumne-Calaveras Unit,Big Creek Fire,204.0,2015-07-29 16:30:00+00:00,2015-08-04 18:00:00+00:00,6 days 01:30:00,2015,100.0,True,2015-07-29
19,los angeles,34.367,-117.683,USFS - Angeles National Forest ,Pines Fire ,200.0,2015-07-17 21:30:00+00:00,2015-08-04 08:15:00+00:00,17 days 10:45:00,2015,100.0,False,2015-07-17
47,siskiyou,41.485,-121.851,Shasta-Trinity National Forest,Stephens Fire,200.0,2015-02-24 12:15:00+00:00,2015-03-02 09:00:00+00:00,5 days 20:45:00,2015,100.0,False,2015-02-24
7,contra costa,37.81629,-121.68113,CAL FIRE Santa Clara Unit,Vasco Fire,195.0,2015-07-30 11:18:00+00:00,2015-07-30 16:00:00+00:00,0 days 04:42:00,2015,100.0,False,2015-07-30
56,ventura,0.0,0.0,Ventura County Fire Department,Rustic Fire,186.0,2015-08-14 15:22:00+00:00,2015-08-16 12:00:00+00:00,1 days 20:38:00,2015,100.0,False,2015-08-14
47,siskiyou,41.8048,-122.5029,CAL FIRE Siskiyou Unit ,Cooley Fire,181.0,2015-07-13 17:56:00+00:00,2015-07-14 08:30:00+00:00,0 days 14:34:00,2015,100.0,False,2015-07-13
37,san diego,32.9421,-116.8534,CAL FIRE San Diego Unit,Wildcat Fire,171.0,2015-06-17 17:03:00+00:00,2015-06-19 17:45:00+00:00,2 days 00:42:00,2015,100.0,False,2015-06-17
10,fresno,40.400196,-120.553075,CAL FIRE Fresno Kings Unit,Creek Fire,170.0,2015-09-09 14:30:00+00:00,2015-09-11 19:17:00+00:00,2 days 04:47:00,2015,100.0,False,2015-09-09
52,tehama,39.8448,-122.3638,CAL FIRE Tehama-Glenn Unit,Black Fire,170.0,2015-07-04 16:33:00+00:00,2015-07-04 20:15:00+00:00,0 days 03:42:00,2015,100.0,False,2015-07-04
15,kern,0.0,0.0,Kern County Fire Department ,Flat Fire ,167.0,2015-08-20 15:57:00+00:00,2015-08-21 18:45:00+00:00,1 days 02:48:00,2015,100.0,False,2015-08-20
37,san diego,33.383889,-116.86861100000002,USFS - Cleveland National Forest,Cutca Fire,167.0,2015-07-24 16:18:00+00:00,2015-07-26 06:45:00+00:00,1 days 14:27:00,2015,100.0,False,2015-07-24
56,ventura,0.0,0.0,Ventura County Fire,River Fire,164.0,2015-06-22 07:00:00+00:00,2015-06-25 07:00:00+00:00,3 days 00:00:00,2015,100.0,False,2015-06-22
12,humboldt,41.295667,-123.784067,CAL FIRE Humboldt-Del Norte Unit,Queen Fire,158.0,2015-07-24 23:00:00+00:00,2015-08-01 21:45:00+00:00,7 days 22:45:00,2015,100.0,True,2015-07-24
58,yuba,39.2688,-121.26471,CAL FIRE Nevada-Yuba-Placer Unit,Cook Fire,158.0,2015-06-18 13:07:00+00:00,2015-06-22 11:45:00+00:00,3 days 22:38:00,2015,100.0,True,2015-06-18
48,solano,38.4113,-122.0789,CAL FIRE Sonoma-Lake-Napa,Sky Fire,150.0,2015-07-06 10:47:00+00:00,2015-07-08 20:45:00+00:00,2 days 09:58:00,2015,100.0,True,2015-07-06
33,riverside,0.0,0.0,CAL FIRE Riverside County Fire,Merwin Fire,150.0,2015-07-01 20:38:00+00:00,2015-07-04 13:00:00+00:00,2 days 16:22:00,2015,100.0,False,2015-07-01
12,humboldt,40.1058823,-124.0720419,CAL FIRE Humboldt-Del Norte Unit,Horse Fire,146.0,2015-08-18 18:30:00+00:00,2015-08-29 07:00:00+00:00,10 days 12:30:00,2015,100.0,True,2015-08-18
32,plumas,40.050833333333,-120.70166666667,**This was NOT a CAL FIRE Incident. Click this link for more information from the US Forest Service  ,Ward Fire,137.0,2015-04-13 05:30:00+00:00,2015-04-18 23:50:00+00:00,5 days 18:20:00,2015,100.0,False,2015-04-13
20,madera,37.072561,-119.6958,CAL FIRE Madera-Mariposa-Merced Unit,Red Fire,135.0,2015-06-21 12:08:00+00:00,2015-06-23 18:25:00+00:00,2 days 06:17:00,2015,100.0,False,2015-06-21
53,trinity,40.724898,-122.96174,CAL FIRE Shasta-Trinity Unit,Democrat Fire,128.0,2015-08-25 14:08:00+00:00,2015-08-29 18:45:00+00:00,4 days 04:37:00,2015,100.0,True,2015-08-25
39,san joaquin,0.0,0.0,CAL FIRE Amador-El Dorado Unit,Collier Fire,122.0,2015-06-18 14:09:00+00:00,2015-06-18 21:15:00+00:00,0 days 07:06:00,2015,100.0,False,2015-06-18
25,modoc,41.29226,-121.172117,CAL FIRE Lassen-Modoc Unit,3-11 Fire,116.0,2015-07-23 16:40:00+00:00,2015-07-26 10:10:00+00:00,2 days 17:30:00,2015,100.0,False,2015-07-23
5,calaveras,38.052,-120.5577,CAL FIRE Tuolumne Calaveras Unit,Mark Fire,114.0,2015-08-13 16:15:00+00:00,2015-08-18 07:15:00+00:00,4 days 15:00:00,2015,100.0,True,2015-08-13
55,tuolumne,37.83618,-120.61691,CAL FIRE Tuolumne-Calaveras Unit,Tulloch Fire,112.0,2015-08-15 16:11:00+00:00,2015-08-16 19:20:00+00:00,1 days 03:09:00,2015,100.0,False,2015-08-15
18,lassen,0.0,0.0,Bureau of Land Management - Northern California District,Shinn Fire,111.0,2015-06-30 18:00:00+00:00,2015-07-03 18:00:00+00:00,3 days 00:00:00,2015,100.0,False,2015-06-30
34,sacramento,0.0,0.0,CAL FIRE Amador-El Dorado Unit,Apple Fire,110.0,2015-09-03 12:12:00+00:00,2015-09-03 14:30:00+00:00,0 days 02:18:00,2015,100.0,True,2015-09-03
52,tehama,40.3506868,-121.7786799,CAL FIRE Tehama-Glenn Unit,36 Fire,110.0,2015-08-08 14:55:00+00:00,2015-08-09 20:30:00+00:00,1 days 05:35:00,2015,100.0,True,2015-08-08
31,placer,0.0,0.0,CAL FIRE Nevada-Yuba-Placer Unit,Riosa Fire,110.0,2015-06-08 10:33:00+00:00,2015-06-08 11:45:00+00:00,0 days 01:12:00,2015,100.0,True,2015-06-08
45,shasta,40.47512,-122.52541,CAL FIRE Shasta-Trinity Unit,Walker Fire,109.0,2015-09-11 15:08:00+00:00,2015-09-13 10:15:00+00:00,1 days 19:07:00,2015,100.0,True,2015-09-11
55,tuolumne,38.04684,-120.30188,CAL FIRE Tuolumne-Calaveras Unit,Oak Fire,108.0,2015-09-08 13:23:00+00:00,2015-09-15 19:15:00+00:00,7 days 05:52:00,2015,100.0,True,2015-09-08
4,butte,39.8707,-121.8938,CAL FIRE Butte Unit ,Munjar Fire,104.0,2015-10-02 14:38:00+00:00,2015-10-02 17:50:00+00:00,0 days 03:12:00,2015,100.0,False,2015-10-02
36,san bernardino,34.165974,-117.243878,San Bernardino National Forest,Sterling Fire,100.0,2015-06-25 18:30:00+00:00,2015-06-29 09:00:00+00:00,3 days 14:30:00,2015,100.0,False,2015-06-25
27,monterey,36.5696373,-121.7556029,CAL FIRE San Benito-Monterey Unit,Laureles Fire,95.0,2015-09-19 15:25:00+00:00,2015-09-21 18:20:00+00:00,2 days 02:55:00,2015,100.0,False,2015-09-19
40,san luis obispo,35.7183,-121.0157,CAL FIRE San Luis Obispo Unit,Deer Fire,95.0,2015-07-10 12:41:00+00:00,2015-07-15 07:00:00+00:00,4 days 18:19:00,2015,100.0,True,2015-07-10
45,shasta,40.49865,-122.20109,CAL FIRE Shasta-Trinity Unit,Sprig Fire,90.0,2015-07-30 12:57:00+00:00,2015-07-31 18:30:00+00:00,1 days 05:33:00,2015,100.0,False,2015-07-30
54,tulare,36.49845,-118.9009,CAL FIRE Tulare Unit,Advance Fire,86.0,2015-07-30 12:40:00+00:00,2015-08-05 17:45:00+00:00,6 days 05:05:00,2015,100.0,True,2015-07-30
37,san diego,32.6449163,-116.9454387,CAL FIRE San Diego Unit / Chula Vista Fire Department,Otay Fire,80.0,2015-06-26 16:06:00+00:00,2015-06-26 22:15:00+00:00,0 days 06:09:00,2015,100.0,False,2015-06-26
33,riverside,0.0,0.0,"**This is no longer a CAL FIRE incident.  At 6 pm on Thursday, June 04, BIA took over management of the fire**",Harrison Fire,80.0,2015-06-01 10:16:00+00:00,2015-06-05 16:32:00+00:00,4 days 06:16:00,2015,100.0,False,2015-06-01
25,modoc,40.856422,-121.101623,CAL FIRE Lassen-Modoc Unit,3-12 Fire,77.0,2015-07-23 17:30:00+00:00,2015-07-25 22:00:00+00:00,2 days 04:30:00,2015,100.0,False,2015-07-23
45,shasta,40.67868,-121.93244,CAL FIRE Shasta-Trinity Unit,Fern Fire,75.0,2015-08-02 03:00:00+00:00,2015-08-04 18:00:00+00:00,2 days 15:00:00,2015,100.0,True,2015-08-02
45,shasta,40.509552,-122.199227,CAL FIRE Shasta-Trinity Unit,Mallard Fire,75.0,2015-07-29 16:30:00+00:00,2015-07-31 18:40:00+00:00,2 days 02:10:00,2015,100.0,True,2015-07-29
9,el dorado,38.776,-120.404,USFS - El Dorado National Forest ,Kyburz Fire,75.0,2015-07-23 14:00:00+00:00,2015-07-29 14:15:00+00:00,6 days 00:15:00,2015,100.0,False,2015-07-23
4,butte,0.0,0.0,CAL FIRE Butte Unit,Webb Fire,75.0,2015-07-01 13:05:00+00:00,2015-07-01 20:20:00+00:00,0 days 07:15:00,2015,100.0,False,2015-07-01
4,butte,26.42,-121.0,CAL FIRE Butte Unit,Olive Fire,72.0,2015-09-02 13:18:00+00:00,2015-09-03 19:35:00+00:00,1 days 06:17:00,2015,100.0,True,2015-09-02
47,siskiyou,0.0,0.0,Klamath National Forest,Prairie Fire,69.0,2015-08-20 16:00:00+00:00,2015-08-22 18:00:00+00:00,2 days 02:00:00,2015,100.0,False,2015-08-20
15,kern,35.77937,-120.19482,Kern County Fire,Pass Fire,67.0,2015-06-15 15:46:00+00:00,2015-06-15 18:45:00+00:00,0 days 02:59:00,2015,100.0,False,2015-06-15
36,san bernardino,0.0,0.0,San Bernardino National Foerst,Scales Fire,65.0,2015-08-01 13:04:00+00:00,2015-08-05 09:00:00+00:00,3 days 19:56:00,2015,100.0,False,2015-08-01
10,fresno,0.0,0.0,CAL FIRE Fresno Unit/Fresno County Fire,Kerkhoff Fire,60.0,2015-07-18 16:31:00+00:00,2015-07-22 10:00:00+00:00,3 days 17:29:00,2015,100.0,False,2015-07-18
18,lassen,40.875667,-121.033667,CAL FIRE Lassen-Modoc Unit,Dixie Fire,60.0,2015-06-19 16:15:00+00:00,2015-06-20 19:35:00+00:00,1 days 03:20:00,2015,100.0,False,2015-06-19
33,riverside,0.0,0.0,CAL FIRE Riverside Unit / Riverside County Fire,Grapefruit Fire,60.0,2015-06-18 14:16:00+00:00,2015-06-21 07:25:00+00:00,2 days 17:09:00,2015,100.0,False,2015-06-18
22,mariposa,0.0,0.0,CAL FIRE Madera-Mariposa-Merced Unit,Triangle Fire,60.0,2015-06-18 12:03:00+00:00,2015-06-19 20:05:00+00:00,1 days 08:02:00,2015,100.0,True,2015-06-18
3,amador,38.260777,-121.135426,CAL FIRE Amador-El Dorado Unit,North Fire,60.0,2015-06-16 16:42:00+00:00,2015-06-17 06:45:00+00:00,0 days 14:03:00,2015,100.0,False,2015-06-16
45,shasta,40.3929,-122.40546,CAL FIRE Shasta-Trinity Unit,Point Fire,59.0,2015-08-03 14:28:00+00:00,2015-08-04 08:15:00+00:00,0 days 17:47:00,2015,100.0,True,2015-08-03
47,siskiyou,0.0,0.0,Shasta-Trinity National Forest ,Military Fire,58.0,2015-10-10 12:00:00+00:00,2015-10-10 18:45:00+00:00,0 days 06:45:00,2015,100.0,False,2015-10-10
36,san bernardino,34.23,-116.883,USFS - San Bernardino National Forest,Summit Fire,55.0,2015-08-23 12:25:00+00:00,2015-09-11 15:00:00+00:00,19 days 02:35:00,2015,100.0,False,2015-08-23
37,san diego,33.4115972,-117.2886249,CAL FIRE San Diego Unit,De Luz Fire,55.0,2015-08-09 08:22:00+00:00,2015-08-10 15:05:00+00:00,1 days 06:43:00,2015,100.0,False,2015-08-09
52,tehama,40.0133,-122.552,CAL FIRE Tehama-Glenn Unit,Fork Fire,55.0,2015-06-17 12:50:00+00:00,2015-06-17 18:30:00+00:00,0 days 05:40:00,2015,100.0,False,2015-06-17
36,san bernardino,34.0783472,-117.0487863,CAL FIRE San Bernardino Unit/San Bernardino National Forest ,Mill 2 Fire,54.0,2015-07-12 14:46:00+00:00,2015-07-21 07:20:00+00:00,8 days 16:34:00,2015,100.0,True,2015-07-12
1,alameda,0.0,0.0,CAL FIRE Santa Clara Unit,Tesla Fire,53.0,2015-06-25 16:10:00+00:00,2015-06-25 18:45:00+00:00,0 days 02:35:00,2015,100.0,False,2015-06-25
42,santa barbara,34.9522,-120.2903,Santa Barbara County Fire,White Fire,52.0,2015-08-01 14:32:00+00:00,1969-12-31 16:00:00+00:00,-16649 days +01:28:00,2015,100.0,False,2015-08-01
56,ventura,34.15,-118.879444,Ventura County Fire Department,Potrero Fire,50.0,2015-11-07 01:45:00+00:00,2015-11-07 16:45:00+00:00,0 days 15:00:00,2015,100.0,False,2015-11-07
23,mendocino,39.43301,-123.36316,CAL FIRE Mendocino Unit,Mendocino Lightning Fires,50.0,2015-07-30 13:36:00+00:00,2015-08-03 08:55:00+00:00,3 days 19:19:00,2015,100.0,False,2015-07-30
15,kern,0.0,0.0,Kern County Fire Department,Antelope Fire,45.0,2015-09-09 11:45:00+00:00,2015-09-15 19:10:00+00:00,6 days 07:25:00,2015,100.0,False,2015-09-09
1,alameda,0.0,0.0,CAL FIRE Santa Clara Unit,Geary Fire,45.0,2015-07-02 04:40:00+00:00,2015-07-03 20:00:00+00:00,1 days 15:20:00,2015,100.0,False,2015-07-02
10,fresno,0.0,0.0,CAL FIRE Fresno-Kings Unit,FKU Lightning Fires,45.0,2015-06-05 17:00:00+00:00,2015-06-06 20:00:00+00:00,1 days 03:00:00,2015,100.0,False,2015-06-05
25,modoc,0.0,0.0,USFS - Modoc National Forest ,Mason Fire ,43.0,2015-07-09 15:00:00+00:00,2015-07-13 11:00:00+00:00,3 days 20:00:00,2015,100.0,False,2015-07-09
43,santa clara,0.0,0.0,CAL FIRE Santa Clara Unit,Highway Fire,42.0,2015-06-30 15:23:00+00:00,2015-07-03 17:55:00+00:00,3 days 02:32:00,2015,100.0,False,2015-06-30
18,lassen,40.400196,-120.553075,CAL FIRE Lassen - Modoc Unit,Center Fire,40.0,2015-09-09 14:12:00+00:00,2015-09-10 07:49:00+00:00,0 days 17:37:00,2015,100.0,False,2015-09-09
50,stanislaus,37.24523,-121.20324,CAL FIRE Santa Clara Unit,Sullivan Fire,40.0,2015-07-28 12:10:00+00:00,2015-07-28 15:00:00+00:00,0 days 02:50:00,2015,100.0,False,2015-07-28
48,solano,38.1029,-122.1578,CAL FIRE Sonoma-Lake-Napa Unit,Ascot Fire,40.0,2015-07-10 13:36:00+00:00,2015-07-10 17:00:00+00:00,0 days 03:24:00,2015,100.0,True,2015-07-10
28,napa,38.5287,-122.3415,CAL FIRE Sonoma-Lake-Napa Unit,Chiles Fire,38.0,2015-06-16 14:27:00+00:00,2015-06-17 13:10:00+00:00,0 days 22:43:00,2015,100.0,True,2015-06-16
28,napa,0.0,0.0,CAL FIRE Sonoma-Lake-Napa Unit,Garage Fire,36.0,2015-06-09 15:23:00+00:00,2015-06-10 09:45:00+00:00,0 days 18:22:00,2015,100.0,True,2015-06-09
53,trinity,40.0,41.46,CAL FIRE Shasta-Trinity Unit,Browns Fire,35.0,2015-09-08 15:56:00+00:00,2015-09-10 17:05:00+00:00,2 days 01:09:00,2015,100.0,False,2015-09-08
9,el dorado,0.0,0.0,CAL FIRE Amador El-Dorado Unit,Ranch Fire,35.0,2015-07-03 09:28:00+00:00,2015-07-05 11:30:00+00:00,2 days 02:02:00,2015,100.0,False,2015-07-03
23,mendocino,39.7806004,-123.248214,CAL FIRE Mendocino Unit,Covelo Fire,35.0,2015-06-28 13:30:00+00:00,2015-06-29 07:15:00+00:00,0 days 17:45:00,2015,100.0,False,2015-06-28
29,nevada,39.081,-121.194,CAL FIRE Nevada-Yuba-Placer Unit,McCourtney Fire,30.0,2015-09-22 07:00:00+00:00,2015-09-21 14:36:00+00:00,-1 days +07:36:00,2015,100.0,False,2015-09-22
18,lassen,41.12362,-121.194256,CAL FIRE Lassen-Modoc Unit,Kramer Fire ,30.0,2015-08-29 16:06:00+00:00,2015-08-30 08:00:00+00:00,0 days 15:54:00,2015,100.0,False,2015-08-29
58,yuba,39.33303,-121.18735,CAL FIRE Nevada-Yuba-Placer Unit,Francis Fire,30.0,2015-08-03 18:07:00+00:00,2015-08-05 07:30:00+00:00,1 days 13:23:00,2015,100.0,False,2015-08-03
56,ventura,0.0,0.0,Ventura County Fire Department,Banister Fire,29.0,2015-11-11 17:40:00+00:00,2015-11-12 18:00:00+00:00,1 days 00:20:00,2015,100.0,False,2015-11-11
31,placer,38.9361,-121.1548,CAL FIRE Nevada Yuba Placer Unit,Baxter Fire,26.0,2015-07-22 18:17:00+00:00,2015-07-22 19:50:00+00:00,0 days 01:33:00,2015,100.0,False,2015-07-22
37,san diego,32.682547,-116.51684,CAL FIRE San Diego Unit,Park Fire,25.0,2015-07-24 12:43:00+00:00,2015-07-25 16:05:00+00:00,1 days 03:22:00,2015,100.0,False,2015-07-24
35,san benito,36.8727,-121.5681,CAL FIRE San Benito-Monterey Unit,Betabel Fire,25.0,2015-07-20 13:23:00+00:00,2015-07-20 15:30:00+00:00,0 days 02:07:00,2015,100.0,False,2015-07-20
37,san diego,33.21407,-116.73472,CAL FIRE San Diego Unit,Lake Fire,25.0,2015-07-16 11:30:00+00:00,2015-07-17 15:15:00+00:00,1 days 03:45:00,2015,100.0,False,2015-07-16
9,el dorado,0.0,0.0,CAL FIRE Amador El Dorado Unit,Buckaroo Fire,25.0,2015-07-02 17:10:00+00:00,2015-07-05 11:30:00+00:00,2 days 18:20:00,2015,100.0,False,2015-07-02
22,mariposa,0.0,0.0,CAL FIRE Madera-Mariposa-Merced Unit  ,Fox Fire,25.0,2015-06-07 12:06:00+00:00,2015-06-09 09:00:00+00:00,1 days 20:54:00,2015,100.0,True,2015-06-07
17,lake,0.0,0.0,CAL FIRE Sonoma-Lake-Napa Unit,Oasis Fire,25.0,2015-06-05 19:57:00+00:00,2015-06-06 06:45:00+00:00,0 days 10:48:00,2015,100.0,False,2015-06-05
33,riverside,0.0,0.0,CAL FIRE Riverside Unit,Snow Fire,25.0,2015-06-05 13:32:00+00:00,2015-06-05 19:00:00+00:00,0 days 05:28:00,2015,100.0,False,2015-06-05
47,siskiyou,41.999341,-121.891226,CAL FIRE Siskiyou Unit,Dorris Fire,24.0,2015-07-21 17:00:00+00:00,2015-07-22 17:00:00+00:00,1 days 00:00:00,2015,100.0,True,2015-07-21
23,mendocino,39.0263,-123.303,CAL FIRE Mendocino Unit,Soda Fire,23.0,2015-07-04 15:30:00+00:00,2015-07-05 09:00:00+00:00,0 days 17:30:00,2015,100.0,False,2015-07-04
17,lake,38.831478,-122.53428,CAL FIRE Sonoma Lake Napa,Grade Fire,22.0,2015-08-24 12:12:00+00:00,2015-08-25 18:30:00+00:00,1 days 06:18:00,2015,100.0,False,2015-08-24
42,santa barbara,34.4828,-119.63216,Los Padres National Forest,Gibraltar Fire,21.0,2015-10-29 05:30:00+00:00,2015-11-09 12:00:00+00:00,11 days 06:30:00,2015,100.0,False,2015-10-29
33,riverside,33.986204,-117.43942,CAL FIRE Riverside County Fire,Spider Fire,21.0,2015-07-12 13:52:00+00:00,2015-07-12 19:48:00+00:00,0 days 05:56:00,2015,100.0,True,2015-07-12
12,humboldt,41.1513,-123.8292,CAL FIRE Humboldt-Del Norte Unit ,Bald Fire,20.0,2015-06-10 07:42:00+00:00,2015-06-11 18:15:00+00:00,1 days 10:33:00,2015,100.0,True,2015-06-10
28,napa,38.519132,-122.181878,CAL FIRE Sonoma-Lake-Napa Unit,Pleasure Fire,19.0,2015-06-27 12:51:00+00:00,2015-06-28 18:00:00+00:00,1 days 05:09:00,2015,100.0,False,2015-06-27
45,shasta,40.5953,-122.4397,CAL FIRE Shasta-Trinity Unit,Keswick Fire,18.0,2015-07-07 12:34:00+00:00,2015-07-08 16:30:00+00:00,1 days 03:56:00,2015,100.0,True,2015-07-07
12,humboldt,40.1093,-123.774,CAL FIRE Humboldt-Del Norte Unit,Buck Fire,16.0,2015-07-28 17:19:00+00:00,2015-07-31 19:00:00+00:00,3 days 01:41:00,2015,100.0,False,2015-07-28
53,trinity,0.0,0.0,USFS - Six Rivers National Forest,Mad River Complex,0.0,2015-07-30 16:00:00+00:00,2015-08-01 15:25:00+00:00,1 days 23:25:00,2015,100.0,False,2015-07-30
2,alpine,38.598056,-119.751944,US Forest Service - Humboldt - Toiyabe National Forest,Washington Fire,0.0,2015-06-19 19:00:00+00:00,2015-06-22 12:05:00+00:00,2 days 17:05:00,2015,100.0,False,2015-06-19
27,monterey,36.45994,-121.89938,US Forest Service - Los Padres National Forest,Soberanes Fire,132127.0,2016-07-22 08:48:00+00:00,2016-10-13 11:30:00+00:00,83 days 02:42:00,2016,100.0,True,2016-07-22
15,kern,35.6115,-118.45628,Bureau of Land Management,Erskine Fire,48019.0,2016-06-23 15:51:00+00:00,2016-07-11 09:40:00+00:00,17 days 17:49:00,2016,100.0,False,2016-06-23
40,san luis obispo,35.70595,-120.98316,CAL FIRE San Luis Obispo Unit,Chimney Fire,46344.0,2016-08-13 16:03:00+00:00,2016-09-06 07:30:00+00:00,23 days 15:27:00,2016,100.0,True,2016-08-13
36,san bernardino,34.30372,-117.49342,San Bernardino National Forest ,Blue Cut Fire,36274.0,2016-08-16 10:44:00+00:00,2016-08-23 07:45:00+00:00,6 days 21:01:00,2016,100.0,True,2016-08-16
47,siskiyou,41.851000000000006,-123.118,USFS Klamath National Forest,Gap Fire,33867.0,2016-08-27 18:00:00+00:00,2016-08-28 18:15:00+00:00,1 days 00:15:00,2016,100.0,False,2016-08-27
42,santa barbara,0.0,0.0,Los Padres National Forest,Rey Fire ,32606.0,2016-08-18 17:57:00+00:00,2016-09-15 15:20:00+00:00,27 days 21:23:00,2016,100.0,False,2016-08-18
15,kern,35.7506,-118.5678,Sequoia National Forest,Cedar Fire,29322.0,2016-08-16 16:35:00+00:00,2016-10-01 06:00:00+00:00,45 days 13:25:00,2016,100.0,False,2016-08-16
42,santa barbara,34.63445,-120.54421,Vandenberg Air Force Base,Canyon Fire,12518.0,2016-09-17 17:20:00+00:00,2016-09-27 14:00:00+00:00,9 days 20:40:00,2016,100.0,False,2016-09-17
36,san bernardino,34.28771,-117.27338,San Bernardino National Forest,Pilot Fire,8110.0,2016-08-07 12:18:00+00:00,2016-08-16 08:00:00+00:00,8 days 19:42:00,2016,100.0,True,2016-08-07
37,san diego,32.60729,-116.63028,CAL FIRE San Diego Unit,Border Fire,7609.0,2016-06-19 11:03:00+00:00,2016-06-30 18:30:00+00:00,11 days 07:27:00,2016,100.0,True,2016-06-19
42,santa barbara,34.776,-119.643,U.S Los Padres National Forest ,Sherpa Fire,7474.0,2016-06-15 15:21:00+00:00,2016-07-12 14:30:00+00:00,26 days 23:09:00,2016,100.0,True,2016-06-15
10,fresno,36.09974,-120.51057,CAL FIRE Fresno Kings Unit,Mineral Fire,7050.0,2016-08-09 13:08:00+00:00,2016-08-18 19:00:00+00:00,9 days 05:52:00,2016,100.0,True,2016-08-09
57,yolo,38.52513,-122.06788,CAL FIRE Sonoma Lake Napa Unit,Cold Fire,5731.0,2016-08-02 16:36:00+00:00,2016-08-12 15:00:00+00:00,9 days 22:24:00,2016,100.0,True,2016-08-02
"9,31",el dorado,38.96741,-120.9375,CAL FIRE Nevada-Yuba-Placer Unit / El Dorado National Forest,Trailhead Fire,5646.0,2016-06-28 13:55:00+00:00,2016-07-18 09:50:00+00:00,19 days 19:55:00,2016,100.0,True,2016-06-28
"9,31",placer,38.96741,-120.9375,CAL FIRE Nevada-Yuba-Placer Unit / El Dorado National Forest,Trailhead Fire,5646.0,2016-06-28 13:55:00+00:00,2016-07-18 09:50:00+00:00,19 days 19:55:00,2016,100.0,True,2016-06-28
14,inyo,37.75985,-118.95309,Inyo National Forest,Owens River Fire,5443.0,2016-09-17 13:49:00+00:00,2016-09-18 08:10:00+00:00,0 days 18:21:00,2016,100.0,False,2016-09-17
19,los angeles,0.0,0.0,Angeles National Forest,San Gabriel Complex (Formerly Fish & Reservoir Fires),5399.0,2016-06-20 13:59:00+00:00,2018-04-23 15:07:00+00:00,672 days 01:08:00,2016,100.0,False,2016-06-20
19,los angeles,34.31,-118.335,Angeles National Forest ,Marek Fire,4824.0,2016-11-14 05:45:00+00:00,2016-11-14 14:00:00+00:00,0 days 08:15:00,2016,100.0,False,2016-11-14
43,santa clara,37.10632,-121.85318,CAL FIRE Santa Clara Unit,Loma Fire,4474.0,2016-09-26 14:42:00+00:00,2017-09-19 10:30:00+00:00,357 days 19:48:00,2016,100.0,True,2016-09-26
54,tulare,35.984,-118.551,Sequoia National Forest,Meadow Fire,4347.0,2016-10-29 11:15:00+00:00,2016-12-19 13:30:00+00:00,51 days 02:15:00,2016,100.0,False,2016-10-29
17,lake,38.89741,-122.60663999999998,CALFIRE Sonoma-Lake-Napa Unit,Clayton Fire,3929.0,2016-08-13 18:03:00+00:00,2016-08-26 18:00:00+00:00,12 days 23:57:00,2016,100.0,True,2016-08-13
27,monterey,36.38123,-121.20059,CAL FIRE San Benito-Monterey Unit,Metz Fire,3876.0,2016-05-22 15:27:00+00:00,2016-05-25 18:15:00+00:00,3 days 02:48:00,2016,100.0,True,2016-05-22
40,san luis obispo,0.0,0.0,Camp Roberts Fire Department,Roberts Fire,3712.0,2016-05-18 14:27:00+00:00,2016-05-20 18:00:00+00:00,2 days 03:33:00,2016,100.0,False,2016-05-18
10,fresno,36.0749,-120.452041,CAL FIRE Fresno Unit,Curry Fire,2944.0,2016-07-01 17:16:00+00:00,2016-07-05 07:05:00+00:00,3 days 13:49:00,2016,100.0,True,2016-07-01
47,siskiyou,41.62300000000001,-123.557,USFS Klamath National Forest ,Pony Fire,2860.0,2016-06-07 02:45:00+00:00,2016-11-08 10:15:00+00:00,154 days 07:30:00,2016,100.0,False,2016-06-07
26,mono,0.0,0.0,Inyo National Forest,Clark Fire,2819.0,2016-08-04 14:09:00+00:00,2016-08-07 19:14:00+00:00,3 days 05:05:00,2016,100.0,False,2016-08-04
25,modoc,41.2649,-120.3178,Modoc National Forest,Soup Complex,2652.0,2016-09-17 14:37:00+00:00,2016-10-13 11:30:00+00:00,25 days 20:53:00,2016,100.0,False,2016-09-17
18,lassen,40.3915,-120.7845,CAL FIRE Lassen-Modoc Unit,Willard Fire,2575.0,2016-09-11 11:33:00+00:00,2016-09-22 07:00:00+00:00,10 days 19:27:00,2016,100.0,True,2016-09-11
27,monterey,36.01542,-121.25029,Los Padres National Forest,Coleman Fire,2520.0,2016-06-04 14:33:00+00:00,2016-06-20 08:30:00+00:00,15 days 17:57:00,2016,100.0,False,2016-06-04
56,ventura,34.701,-119.144,Los Padres National Forest,Pine Fire,2304.0,2016-06-30 16:55:00+00:00,2016-06-30 16:55:00+00:00,0 days 00:00:00,2016,100.0,False,2016-06-30
10,fresno,37.01591,-119.50507,CAL FIRE Fresno-Kings Unit,Goose Fire,2241.0,2016-07-30 16:40:00+00:00,2016-08-09 18:30:00+00:00,10 days 01:50:00,2016,100.0,True,2016-07-30
10,fresno,36.94536,-119.25959,USFS Sierra National Forest,Sacata Fire,2100.0,2016-10-11 12:58:00+00:00,2016-10-20 07:00:00+00:00,8 days 18:02:00,2016,100.0,False,2016-10-11
15,kern,35.20993,-118.72272,Kern County Fire,Deer Fire,1785.0,2016-07-01 14:05:00+00:00,2016-07-08 19:00:00+00:00,7 days 04:55:00,2016,100.0,True,2016-07-01
49,sonoma,38.80017,-122.82895,CAL FIRE Sonoma-Lake-Napa Unit,Sawmill Fire,1547.0,2016-09-25 10:43:00+00:00,2016-09-29 17:00:00+00:00,4 days 06:17:00,2016,100.0,True,2016-09-25
33,riverside,0.0,0.0,CAL FIRE / Riverside County Fire,Bogart Fire,1470.0,2016-08-30 12:25:00+00:00,2016-09-02 18:10:00+00:00,3 days 05:45:00,2016,100.0,True,2016-08-30
24,merced,37.07147,-121.20155,CAL FIRE Madera-Mariposa-Merced Unit,Dinosaur Fire,1246.0,2016-06-25 23:45:00+00:00,2016-06-26 18:50:00+00:00,0 days 19:05:00,2016,100.0,False,2016-06-25
37,san diego,33.393,-117.35093,Camp Pendleton Military Base,Roblar Fire,1245.0,2016-07-21 16:06:00+00:00,2016-07-30 14:15:00+00:00,8 days 22:09:00,2016,100.0,False,2016-07-21
19,los angeles,34.36763,-118.57245,Los Angeles County Fire,Sage Fire,1109.0,2016-07-09 12:04:00+00:00,2016-07-16 12:00:00+00:00,6 days 23:56:00,2016,100.0,False,2016-07-09
55,tuolumne,37.79635,-120.32484,CAL FIRE Tuolumne-Calaveras Unit,Marshes Fire,1080.0,2016-09-26 12:20:00+00:00,2016-10-04 22:00:00+00:00,8 days 09:40:00,2016,100.0,True,2016-09-26
4,butte,39.6871,-121.571,CAL FIRE / Butte County Fire,Saddle Fire,850.0,2016-09-05 16:28:00+00:00,2016-09-12 14:51:00+00:00,6 days 22:23:00,2016,100.0,True,2016-09-05
47,siskiyou,41.7813,-122.611,CAL FIRE Siskiyou Unit,Grade Fire,710.0,2016-08-24 14:55:00+00:00,2016-08-30 06:45:00+00:00,5 days 15:50:00,2016,100.0,True,2016-08-24
26,mono,37.97,-119.14,Inyo National Forest,Marina Fire,650.0,2016-06-25 06:30:00+00:00,2016-07-09 08:30:00+00:00,14 days 02:00:00,2016,100.0,False,2016-06-25
12,humboldt,41.28486,-123.82268,CAL Fire Humboldt-Del Norte Unit,Tully Fire,599.0,2016-08-22 16:03:00+00:00,2016-09-04 06:55:00+00:00,12 days 14:52:00,2016,100.0,True,2016-08-22
15,kern,34.913000000000004,118.9082,Kern County Fire,Fort Fire,554.0,2016-07-08 11:15:00+00:00,2016-07-10 19:37:00+00:00,2 days 08:22:00,2016,100.0,False,2016-07-08
4,butte,39.6708,-121.7192,CAL FIRE Butte Unit,99 Fire,550.0,2016-08-02 14:35:00+00:00,2016-08-03 08:00:00+00:00,0 days 17:25:00,2016,100.0,False,2016-08-02
15,kern,35.2013,-118.7212,Kern County Fire Department,Range Fire,518.0,2016-08-26 10:10:00+00:00,2016-08-29 10:30:00+00:00,3 days 00:20:00,2016,100.0,False,2016-08-26
52,tehama,40.0353,-122.56938999999998,CAL FIRE Tehama-Glenn Unit,Colyear Fire,464.0,2016-06-30 13:32:00+00:00,2016-07-04 07:45:00+00:00,3 days 18:13:00,2016,100.0,True,2016-06-30
5,calaveras,38.1874,-120.6381,CAL FIRE Tuolumne-Calaveras Unit,Willow Fire,450.0,2016-08-28 13:07:00+00:00,2016-08-31 18:50:00+00:00,3 days 05:43:00,2016,100.0,True,2016-08-28
45,shasta,40.36873,-122.72913,CAL FIRE Shasta-Trinity Unit,Fiddler Fire,441.0,2016-07-08 22:45:00+00:00,2016-07-12 07:00:00+00:00,3 days 08:15:00,2016,100.0,True,2016-07-08
58,yuba,36.16965,-121.38775,CAL FIRE Nevada-Yuba-Placer Unit,Beale Fire,400.0,2016-08-18 15:35:00+00:00,2016-08-18 21:30:00+00:00,0 days 05:55:00,2016,100.0,False,2016-08-18
54,tulare,36.1648,-118.73906,US Forest Service - Sequoia National Forest,Tule Fire,395.0,2016-08-22 22:00:00+00:00,2016-11-08 10:15:00+00:00,77 days 12:15:00,2016,100.0,False,2016-08-22
25,modoc,41.4657,-120.9066,CAL FIRE Lassen-Modoc Unit,Howard Fire,380.0,2016-09-11 14:15:00+00:00,2016-09-14 18:00:00+00:00,3 days 03:45:00,2016,100.0,False,2016-09-11
3,amador,38.385,-121.003611,CAL FIRE Amador- El Dorado Unit,Rancho Fire,372.0,2016-06-28 19:02:00+00:00,2016-06-29 07:30:00+00:00,0 days 12:28:00,2016,100.0,False,2016-06-28
52,tehama,40.30594,-122.1295,CAL FIRE Tehama-Glenn Unit,Hog Fire,360.0,2016-09-13 23:10:00+00:00,2016-09-13 14:30:00+00:00,-1 days +15:20:00,2016,100.0,True,2016-09-13
5,calaveras,38.08056,-120.81394,CAL FIRE Tuolumne Calaveras Unit,Pacheco Fire,341.0,2016-07-12 13:14:00+00:00,2016-07-16 18:30:00+00:00,4 days 05:16:00,2016,100.0,False,2016-07-12
5,calaveras,38.02845,-120.61153,CAL FIRE Tuolumne-Calaveras Unit,Appaloosa Fire,310.0,2016-07-02 14:55:00+00:00,2016-07-08 19:32:00+00:00,6 days 04:37:00,2016,100.0,False,2016-07-02
15,kern,0.0,0.0,Kern County Fire Department,Flat Fire,306.0,2016-09-19 14:13:00+00:00,2016-09-21 09:30:00+00:00,1 days 19:17:00,2016,100.0,False,2016-09-19
15,kern,35.4976,-118.5097,USFS Sequoia National Forest,Havilah Fire,304.0,2016-08-28 18:50:00+00:00,2016-08-28 18:50:00+00:00,0 days 00:00:00,2016,100.0,False,2016-08-28
51,sutter,39.188321,-121.78003,Beale Air Force Base,Butte Fire,300.0,2016-09-20 09:30:00+00:00,2016-09-20 18:00:00+00:00,0 days 08:30:00,2016,100.0,False,2016-09-20
10,fresno,36.88286,-119.654,CAL FIRE Fresno-Kings Unit,DeWolf Fire,278.0,2016-05-25 01:03:00+00:00,2016-05-25 08:00:00+00:00,0 days 06:57:00,2016,100.0,False,2016-05-25
57,yolo,38.69971,-122.15457,CAL FIRE Sonoma-Lake-Napa Unit,Creek Fire,277.0,2016-06-26 15:45:00+00:00,2016-06-27 06:15:00+00:00,0 days 14:30:00,2016,100.0,False,2016-06-26
32,plumas,39.92,-121.32,US Forest Service - Plumas NF,Tobin Fire,248.0,2016-09-26 13:23:00+00:00,2016-10-06 17:15:00+00:00,10 days 03:52:00,2016,100.0,False,2016-09-26
35,san benito,0.0,0.0,CAL FIRE San Benito-Monterey Unit,King Fire ,237.0,2016-06-17 14:30:00+00:00,2016-06-20 06:00:00+00:00,2 days 15:30:00,2016,100.0,True,2016-06-17
15,kern,35.68313,-118.21793,Kern County Fire / Sequoia National Forest ,Onyx Fire,221.0,2016-07-13 17:08:00+00:00,2016-07-14 12:00:00+00:00,0 days 18:52:00,2016,100.0,False,2016-07-13
42,santa barbara,34.75134,-120.55297,Vandenberg Air Force Base,Washington Fire,215.0,2016-09-22 14:20:00+00:00,2016-09-27 14:00:00+00:00,4 days 23:40:00,2016,100.0,False,2016-09-22
17,lake,39.12366,-122.50373,CAL FIRE Sonoma-Lake-Napa Unit,Reservoir Fire,215.0,2016-06-26 16:00:00+00:00,2016-06-28 20:00:00+00:00,2 days 04:00:00,2016,100.0,True,2016-06-26
1,alameda,37.74369,-121.58677,CAL FIRE Santa Clara Unit,Grant Fire,211.0,2016-06-25 16:11:00+00:00,2016-06-26 07:00:00+00:00,0 days 14:49:00,2016,100.0,False,2016-06-25
3,amador,38.26874,-120.90265,CAL FIRE Amador El-Dorado Unit,Camanche Fire,210.0,2016-06-17 14:54:00+00:00,2016-06-21 18:30:00+00:00,4 days 03:36:00,2016,100.0,True,2016-06-17
10,fresno,36.92244,-119.39619,CAL FIRE Fresno County Fire,Big Fire,188.0,2016-07-11 14:30:00+00:00,2016-07-13 17:30:00+00:00,2 days 03:00:00,2016,100.0,False,2016-07-11
9,el dorado,38.93449,-120.10744,CAL FIRE Amador- El Dorado Unit / USFS El Dorado National Forest / Lake Valley Fire,Emerald Fire,176.0,2016-10-14 01:28:00+00:00,2016-10-17 11:45:00+00:00,3 days 10:17:00,2016,100.0,True,2016-10-14
33,riverside,0.0,0.0,CAL FIRE Riverside County Fire Unit,Briggs Fire,173.0,2016-07-12 15:20:00+00:00,2016-07-15 08:00:00+00:00,2 days 16:40:00,2016,100.0,False,2016-07-12
31,placer,38.8390117,-121.3090268,CAL FIRE Nevada-Yuba-Placer Unit,Athens Fire,169.0,2016-05-17 15:06:00+00:00,2016-05-19 18:00:00+00:00,2 days 02:54:00,2016,100.0,False,2016-05-17
10,fresno,36.84479,-119.34487,CAL FIRE / Fresno County Fire,Sunny Fire,158.0,2016-09-03 14:44:00+00:00,2016-09-06 18:15:00+00:00,3 days 03:31:00,2016,100.0,True,2016-09-03
19,los angeles,34.276,-118.354,LA County Fire Department/Angeles National Forest,Wheatland Fire,156.0,2016-05-23 14:15:00+00:00,2016-05-25 18:45:00+00:00,2 days 04:30:00,2016,100.0,False,2016-05-23
10,fresno,0.0,0.0,CAL FIRE Fresno-Kings Unit,Hills Fire,151.0,2016-04-28 17:45:00+00:00,2016-04-29 17:15:00+00:00,0 days 23:30:00,2016,100.0,False,2016-04-28
8,del norte,37.75972,-120.029626,Stanislaus National Forest,Old Fire,150.0,2016-09-13 13:55:00+00:00,2016-09-17 18:00:00+00:00,4 days 04:05:00,2016,100.0,False,2016-09-13
30,orange,33.6542,-117.5221,Cleveland National Forest,Holy Fire,150.0,2016-08-31 04:10:00+00:00,2016-09-05 06:55:00+00:00,5 days 02:45:00,2016,100.0,False,2016-08-31
40,san luis obispo,35.61960999999999,-120.39993,CAL FIRE San Luis Obispo Unit,Shedd Fire,150.0,2016-05-10 16:11:00+00:00,2016-05-10 18:45:00+00:00,0 days 02:34:00,2016,100.0,False,2016-05-10
39,san joaquin,37.62215,-121.36665,CAL FIRE Santa Clara Unit,Bird Fire,147.0,2016-08-20 08:35:00+00:00,2016-08-20 18:45:00+00:00,0 days 10:10:00,2016,100.0,False,2016-08-20
10,fresno,36.14161,-120.62048,CAL FIRE Fresno-Kings Unit,Frame Fire,145.0,2016-07-04 17:15:00+00:00,2016-07-07 19:00:00+00:00,3 days 01:45:00,2016,100.0,False,2016-07-04
50,stanislaus,0.0,0.0,CAL FIRE Santa Clara Unit,Maze Fire,140.0,2016-08-04 15:45:00+00:00,2016-08-04 20:00:00+00:00,0 days 04:15:00,2016,100.0,False,2016-08-04
33,riverside,33.476894,-117.140883,CAL FIRE Riverside County Fire,Temecula Fire,139.0,2016-06-04 11:40:00+00:00,2016-06-07 18:15:00+00:00,3 days 06:35:00,2016,100.0,True,2016-06-04
15,kern,35.60747999999999,-118.94811,Kern County Fire,Famoso Fire,138.0,2016-07-15 23:55:00+00:00,2016-07-16 07:40:00+00:00,0 days 07:45:00,2016,100.0,False,2016-07-15
10,fresno,36.78769000000001,-119.38248,CAL FIRE Fresno-Kings Unit,Avocado Fire,132.0,2016-05-15 16:38:00+00:00,2016-05-17 19:10:00+00:00,2 days 02:32:00,2016,100.0,False,2016-05-15
4,butte,39.4403,-121.42647,CAL FIRE Butte Unit,Bangor Fire,130.0,2016-09-22 11:45:00+00:00,2016-09-23 10:30:00+00:00,0 days 22:45:00,2016,100.0,False,2016-09-22
10,fresno,37.0099,-119.5792,CAL FIRE Fresno County Fire,Green Fire,123.0,2016-07-15 16:45:00+00:00,2016-07-16 18:00:00+00:00,1 days 01:15:00,2016,100.0,True,2016-07-15
26,mono,0.0,0.0,Inyo National Forest,Rock Creek Fire,122.0,2016-08-05 15:45:00+00:00,2016-08-07 19:33:00+00:00,2 days 03:48:00,2016,100.0,False,2016-08-05
50,stanislaus,37.17072,-121.42238,CAL FIRE Santa Clara Unit,Coe Fire,120.0,2016-06-07 16:30:00+00:00,2016-06-09 17:10:00+00:00,2 days 00:40:00,2016,100.0,False,2016-06-07
43,santa clara,37.41896,-121.79668999999998,CAL FIRE Santa Clara Unit,Sierra Fire,114.0,2016-07-30 17:25:00+00:00,2016-07-31 18:30:00+00:00,1 days 01:05:00,2016,100.0,False,2016-07-30
4,butte,39.595,-121.6008,CAL FIRE Butte Unit,Coal Fire,112.0,2016-06-20 16:38:00+00:00,2016-06-20 19:50:00+00:00,0 days 03:12:00,2016,100.0,False,2016-06-20
20,madera,37.25601,-119.65776,CAL FIRE Madera-Mariposa-Merced Unit,Broken Fire,103.0,2016-07-04 11:53:00+00:00,2016-07-06 20:00:00+00:00,2 days 08:07:00,2016,100.0,False,2016-07-04
45,shasta,40.0,-121.93923,CAL FIRE Shasta-Trinity Unit,Cow Fire,100.0,2016-09-25 07:15:00+00:00,2016-09-25 13:15:00+00:00,0 days 06:00:00,2016,100.0,False,2016-09-25
43,santa clara,0.0,0.0,CAL FIRE San Mateo-Santa Clara Unit,Bailey Fire,100.0,2016-08-17 15:19:00+00:00,2016-08-18 19:50:00+00:00,1 days 04:31:00,2016,100.0,False,2016-08-17
15,kern,35.24504,-118.60344,Kern County Fire,Hart Fire,100.0,2016-08-04 17:10:00+00:00,2016-08-07 20:15:00+00:00,3 days 03:05:00,2016,100.0,False,2016-08-04
50,stanislaus,0.0,0.0,CAL FIRE Santa Clara Unit,Diablo Fire,100.0,2016-08-03 16:08:00+00:00,2016-08-04 07:45:00+00:00,0 days 15:37:00,2016,100.0,False,2016-08-03
27,monterey,35.85093,-120.81081,CAL FIRE San Benito-Monterey Unit,Bradley Fire,100.0,2016-07-22 15:15:00+00:00,2016-07-23 08:45:00+00:00,0 days 17:30:00,2016,100.0,False,2016-07-22
37,san diego,32.9612,-116.7945,CAL FIRE San Diego,Feather Fire,100.0,2016-07-18 13:08:00+00:00,2016-07-20 13:45:00+00:00,2 days 00:37:00,2016,100.0,False,2016-07-18
35,san benito,5487.0,-120.841536,CAL FIRE San Benito-Monterey Unit,Mercury Fire,95.0,2016-07-09 12:43:00+00:00,2016-07-10 19:30:00+00:00,1 days 06:47:00,2016,100.0,False,2016-07-09
4,butte,39.33035,-121.78973,CAL FIRE Butte Unit,Dunstone Fire,91.0,2016-05-27 13:43:00+00:00,2016-05-27 17:00:00+00:00,0 days 03:17:00,2016,100.0,False,2016-05-27
4,butte,39.79547,-121.71662,CAL FIRE Butte Unit,Santos Fire,88.0,2016-08-26 15:30:00+00:00,2016-08-30 18:40:00+00:00,4 days 03:10:00,2016,100.0,True,2016-08-26
52,tehama,40.07846,-122.2071,CAL FIRE Tehama-Glen Unit,Flores Fire,88.0,2016-07-01 13:54:00+00:00,2016-07-01 17:45:00+00:00,0 days 03:51:00,2016,100.0,False,2016-07-01
31,placer,38.86804,-121.37704,CAL FIRE Nevada Yuba Placer Unit,Moore Fire,88.0,2016-06-21 12:24:00+00:00,2016-06-21 15:45:00+00:00,0 days 03:21:00,2016,100.0,False,2016-06-21
34,sacramento,38.517772,-121.103642,CAL FIRE Amador-Eldorado Unit,Scott Fire,87.0,2016-07-10 15:30:00+00:00,2016-07-11 06:35:00+00:00,0 days 15:05:00,2016,100.0,False,2016-07-10
40,san luis obispo,35.70821,-120.82266,CAL FIRE San Luis Obispo Unit,Frazier Fire,86.0,2016-06-27 12:07:00+00:00,2016-06-29 17:00:00+00:00,2 days 04:53:00,2016,100.0,False,2016-06-27
20,madera,37.3228,-119.7738,CAL FIRE Madera-Mariposa-Merced Unit,Grub Fire,85.0,2016-08-04 14:13:00+00:00,2016-08-06 19:50:00+00:00,2 days 05:37:00,2016,100.0,False,2016-08-04
55,tuolumne,37.927613,-120.528836,CAL FIRE Tuolumne-Calaveras Unit,Tulloch Fire,85.0,2016-05-30 15:10:00+00:00,2016-06-01 19:45:00+00:00,2 days 04:35:00,2016,100.0,True,2016-05-30
57,yolo,38.8866,-122.04726,CAL FIRE Sonoma-Lake-Napa Unit,Dunnigan Fire,84.0,2016-07-15 14:00:00+00:00,2016-07-15 15:40:00+00:00,0 days 01:40:00,2016,100.0,False,2016-07-15
5,calaveras,0.0,0.0,CAL FIRE Tuolumne-Calaveras Unit,Cheyenne Fire,83.0,2016-06-15 12:46:00+00:00,2016-06-16 10:00:00+00:00,0 days 21:14:00,2016,100.0,True,2016-06-15
35,san benito,36.49914,-121.04993,CAL FIRE San Benito Monterey Unit,Old Fire,83.0,2016-06-12 12:45:00+00:00,2016-06-12 15:45:00+00:00,0 days 03:00:00,2016,100.0,False,2016-06-12
52,tehama,40.19611,-122.26736,CAL FIRE Tehama-Glenn Unit,Baker Fire,80.0,2016-08-03 17:27:00+00:00,2016-08-04 07:50:00+00:00,0 days 14:23:00,2016,100.0,False,2016-08-03
20,madera,0.0,0.0,CAL FIRE Madera-Mariposa-Merced Unit,Serpa Fire,80.0,2016-07-21 12:53:00+00:00,2016-07-25 19:20:00+00:00,4 days 06:27:00,2016,100.0,True,2016-07-21
52,tehama,39.7947,-121.857,CAL FIRE Tehama Glenn Unit,Hoag Fire,80.0,2016-06-11 14:30:00+00:00,2016-06-11 16:15:00+00:00,0 days 01:45:00,2016,100.0,False,2016-06-11
56,ventura,36.92244,-119.39619,Ventura County Fire Department,Sherwood Fire,78.0,2016-07-13 15:52:00+00:00,2016-07-15 14:00:00+00:00,1 days 22:08:00,2016,100.0,False,2016-07-13
45,shasta,40.68192,-122.4096,CAL FIRE Shasta-Trinity Unit / Shasta Lake City Fire Department,Lake Fire,75.0,2016-09-10 15:45:00+00:00,2016-09-12 19:00:00+00:00,2 days 03:15:00,2016,100.0,False,2016-09-10
10,fresno,36.6543,-119.5327,CAL FIRE Fresno-Kings unit,Newmark Fire,70.0,2016-09-23 12:40:00+00:00,2016-09-24 20:00:00+00:00,1 days 07:20:00,2016,100.0,False,2016-09-23
27,monterey,36.2833,-121.3306,CAL FIRE San Benito-Monterey Unit,Arroyo Fire,70.0,2016-06-18 16:47:00+00:00,2016-06-20 18:15:00+00:00,2 days 01:28:00,2016,100.0,False,2016-06-18
37,san diego,33.41639,-117.08829,CAL FIRE San Diego Unit,Pala Fire,70.0,2016-05-31 13:48:00+00:00,2016-06-07 06:45:00+00:00,6 days 16:57:00,2016,100.0,True,2016-05-31
17,lake,39.0863,-122.7891,CAL FIRE Sonoma-Lake-Napa Unit,Foothill Fire,69.0,2016-07-19 17:16:00+00:00,2016-07-22 18:15:00+00:00,3 days 00:59:00,2016,100.0,True,2016-07-19
28,napa,38.40958,-122.43172,CAL FIRE Sonoma-Lake-Napa Unit,Creek Fire,65.0,2016-10-10 16:13:00+00:00,2016-10-12 18:00:00+00:00,2 days 01:47:00,2016,100.0,True,2016-10-10
15,kern,35.77135,-120.251,Kern County Fire Department,Cotton Fire,61.0,2016-06-11 15:04:00+00:00,2016-06-12 12:30:00+00:00,0 days 21:26:00,2016,100.0,False,2016-06-11
48,solano,38.33475,-122.02564,CAL FIRE Sonoma-Lake-Napa Unit/Vacaville Fire Department,Oak Fire,57.0,2016-07-22 13:01:00+00:00,2016-07-22 16:07:00+00:00,0 days 03:06:00,2016,100.0,False,2016-07-22
5,calaveras,37.98171,-120.64241,CAL FIRE Tuolumne-Calaveras Unit,Baker Fire,57.0,2016-07-21 15:06:00+00:00,2016-07-22 19:00:00+00:00,1 days 03:54:00,2016,100.0,True,2016-07-21
47,siskiyou,0.0,0.0,CAL FIRE Siskiyou Unit,Mill Fire,56.0,2016-05-19 15:37:00+00:00,2016-05-21 19:00:00+00:00,2 days 03:23:00,2016,100.0,False,2016-05-19
27,monterey,36.1934,-120.9293,CAL FIRE San Benito-Monterey Unit,Lowe Fire,52.0,2016-06-23 17:57:00+00:00,2016-06-24 18:20:00+00:00,1 days 00:23:00,2016,100.0,False,2016-06-23
23,mendocino,39.7299,-123.5044,CAL FIRE Mendocino Unit,Ruff Fire ,50.0,2016-09-10 14:06:00+00:00,2016-09-15 09:10:00+00:00,4 days 19:04:00,2016,100.0,False,2016-09-10
36,san bernardino,34.3183,-117.3189,San Bernardino County Fire ,Spring Fire,50.0,2016-09-07 16:53:00+00:00,2016-09-09 06:00:00+00:00,1 days 13:07:00,2016,100.0,False,2016-09-07
9,el dorado,38.79549,-121.00299,CAL FIRE Amador-El Dorado Unit,Storksbill Fire,50.0,2016-07-22 13:15:00+00:00,2016-07-23 18:00:00+00:00,1 days 04:45:00,2016,100.0,True,2016-07-22
56,ventura,0.0,0.0,Ventura County Fire Department,Casitas Fire,50.0,2016-04-28 19:00:00+00:00,2016-04-30 07:00:00+00:00,1 days 12:00:00,2016,100.0,False,2016-04-28
4,butte,39.43351,-121.6051,CAL FIRE Butte County Fire,70 Fire,49.0,2016-06-21 15:09:00+00:00,2016-06-21 16:30:00+00:00,0 days 01:21:00,2016,100.0,False,2016-06-21
29,nevada,39.20427,-121.05948,CAL FIRE Nevada-Yuba-Placer Unit / Grass Valley Fire Department,Auburn Fire,47.0,2016-09-17 13:40:00+00:00,2016-09-20 18:00:00+00:00,3 days 04:20:00,2016,100.0,False,2016-09-17
30,orange,33.578720000000004,-117.77395,Orange County Fire Authority,Laguna Fire,47.0,2016-06-26 13:10:00+00:00,2016-06-29 18:30:00+00:00,3 days 05:20:00,2016,100.0,False,2016-06-26
3,amador,38.5212,-120.8416,CAL FIRE Amador-El Dorado Unit,Bell Fire,45.0,2016-09-23 13:12:00+00:00,2016-09-25 17:45:00+00:00,2 days 04:33:00,2016,100.0,True,2016-09-23
17,lake,36.09974,-120.51057,CAL FIRE Sonoma-Lake-Napa Unit,Kugelman Fire,45.0,2016-08-09 17:30:00+00:00,2016-08-10 17:00:00+00:00,0 days 23:30:00,2016,100.0,False,2016-08-09
56,ventura,34.27619,-118.63264,Ventura County Fire,Kuehner Fire,45.0,2016-07-01 14:00:00+00:00,2016-07-01 19:50:00+00:00,0 days 05:50:00,2016,100.0,False,2016-07-01
52,tehama,39.93965,-122.40142,CAL FIRE Tehama-Glenn Unit,Paskenta Fire,43.0,2016-06-21 10:26:00+00:00,2016-06-21 13:00:00+00:00,0 days 02:34:00,2016,100.0,False,2016-06-21
15,kern,0.0,0.0,Kern County Fire Department,Walker Fire,43.0,2016-05-30 17:57:00+00:00,2016-06-04 17:00:00+00:00,4 days 23:03:00,2016,100.0,False,2016-05-30
18,lassen,0.0,0.0,CAL FIRE Lassen-Modoc Unit,Dockery Fire,42.0,2016-07-30 16:25:00+00:00,2016-08-01 19:40:00+00:00,2 days 03:15:00,2016,100.0,True,2016-07-30
